[{"id":"6cb9b62788","lat":13.085279,"lng":77.644533,"bhk":"3BHK","rent":19000,"deposit":85000,"size":1400,"locality":"Thanisandra","society":"Bhartiya City Nikoo Homes","furnishing":"FF","tenant":"MALE","bathroom":0,"url":"http://nobr.kr/sy/yd3QC3"},{"id":"62ef861523","lat":13.065935,"lng":77.643182,"bhk":"2BHK","rent":16000,"deposit":40000,"size":1200,"locality":"BDS Nagara, BDS Nagar, Narayanapura, Bengaluru, Karnataka 560077, India","society":"Independent House","furnishing":"FF","tenant":"FEMALE","bathroom":0,"url":"http://nobr.kr/sy/tKsn23"},{"id":"62ef861523","lat":13.065935,"lng":77.643182,"bhk":"2BHK","rent":16000,"deposit":40000,"size":1200,"locality":"BDS Nagara, BDS Nagar, Narayanapura, Bengaluru, Karnataka 560077, India","society":"Independent House","furnishing":"FF","tenant":"FEMALE","bathroom":0,"url":"http://nobr.kr/sy/tKsn23"},{"id":"160cb416cf","lat":13.055175,"lng":77.600259,"bhk":"3BHK","rent":14000,"deposit":35000,"size":1350,"locality":"Hebbal Kempapura","society":"Independent House","furnishing":"FF","tenant":"FEMALE","bathroom":0,"url":"http://nobr.kr/sy/3D5J95"},{"id":"b5585707d1","lat":12.927695,"lng":77.639521,"bhk":"2BHK","rent":24700,"deposit":150000,"size":1300,"locality":"Shree Lakshmi Grand","society":"Shree Lakshmi Grand","furnishing":"FF","tenant":"FEMALE","bathroom":0,"url":"http://nobr.kr/sy/7sK315"},{"id":"b945643075","lat":13.004012,"lng":77.717568,"bhk":"2BHK","rent":10000,"deposit":30000,"size":1100,"locality":"Krishnarajapura","society":"Vaibhava Dsilva Elite","furnishing":"FF","tenant":"MALE","bathroom":0,"url":"http://nobr.kr/sy/qqLWd"},{"id":"e99e652024","lat":12.885392,"lng":77.649395,"bhk":"3BHK","rent":17000,"deposit":68000,"size":1560,"locality":"Singasandra, Bangalore","society":"Splendid Skylines","furnishing":"FF","tenant":"FEMALE","bathroom":0,"url":"http://nobr.kr/sy/GTM7p"},{"id":"770f7114d3","lat":12.925744,"lng":77.631886,"bhk":"2BHK","rent":9000,"deposit":12000,"size":1000,"locality":"Koramangala 4th Block","society":"NONE","furnishing":"FF","tenant":"FEMALE","bathroom":1,"url":"http://nobr.kr/sy/QmjN75"},{"id":"22c6b40bc8","lat":12.914768,"lng":77.716509,"bhk":"2BHK","rent":50000,"deposit":200000,"size":1525,"locality":"Chikkabellandur","society":"Clpd Arcadia","furnishing":"FF","tenant":"FEMALE","bathroom":0,"url":"http://nobr.kr/sy/8YXTN"},{"id":"257fb81486","lat":12.909838,"lng":77.612986,"bhk":"2BHK","rent":10000,"deposit":30000,"size":800,"locality":"279, 26th Main Rd, Lakshmi Layout, MCHS Colony, Stage 2, BTM Layout, Bengaluru, Karnataka 560076, India","society":"building","furnishing":"SF","tenant":"MALE","bathroom":0,"url":"http://nobr.kr/sy/MQkm23"},{"id":"3e7c245071","lat":12.935421,"lng":77.51258,"bhk":"2BHK","rent":13500,"deposit":75000,"size":1100,"locality":"Nayanda Halli","society":"GRC Brundavan","furnishing":"FF","tenant":"MALE","bathroom":0,"url":"http://nobr.kr/sy/HGZcS4"},{"id":"f4b2da1c02","lat":12.865557,"lng":77.774761,"bhk":"3BHK","rent":18000,"deposit":60000,"size":1318,"locality":"Sarjapura","society":"ARS Signaturehomes Phase-2","furnishing":"FF","tenant":"FEMALE","bathroom":2,"url":"http://nobr.kr/sy/JDqMC2"},{"id":"09d3832168","lat":13.004803,"lng":77.752928,"bhk":"2BHK","rent":10000,"deposit":30000,"size":1200,"locality":"Krishnarajapura","society":"Ushodaya Pallavi Apartment","furnishing":"FF","tenant":"MALE","bathroom":2,"url":"http://nobr.kr/sy/TGsq22"},{"id":"1c47111ef0","lat":12.944361,"lng":77.679662,"bhk":"3BHK","rent":24000,"deposit":100000,"size":1700,"locality":"Bellandur, Bengaluru ","society":"Vista Lagos Apartments","furnishing":"FF","tenant":"MALE","bathroom":0,"url":"http://nobr.kr/sy/LgyYF2"},{"id":"cbe0564071","lat":12.92708,"lng":77.583567,"bhk":"2BHK","rent":10000,"deposit":10000,"size":1200,"locality":"Jayanagar 5th block","society":"Santa Clara Apartments","furnishing":"FF","tenant":"FEMALE","bathroom":0,"url":"http://nobr.kr/sy/QF4ky2"},{"id":"f487562815","lat":12.832663,"lng":77.692861,"bhk":"2BHK","rent":12000,"deposit":40000,"size":800,"locality":"Electronic City","society":"Standalone building","furnishing":"UF","tenant":"MALE","bathroom":0,"url":"http://nobr.kr/sy/Gr4Fs2"},{"id":"44d22b01f6","lat":12.893923,"lng":77.706768,"bhk":"2BHK","rent":13000,"deposit":35000,"size":1000,"locality":"Carmelaram","society":"Carmelaram","furnishing":"FF","tenant":"MALE","bathroom":0,"url":"http://nobr.kr/sy/6gwGt2"},{"id":"5e15240374","lat":12.891828,"lng":77.571359,"bhk":"3BHK","rent":22000,"deposit":60000,"size":1450,"locality":"Chunchgatta Main Rd","society":"Ramson&#39;s Premier Galaxy","furnishing":"FF","bathroom":0,"url":"http://nobr.kr/sy/DZS4W2"},{"id":"eb90670a97","lat":12.916774,"lng":77.672028,"bhk":"3BHK","rent":27500,"deposit":100000,"size":2008,"locality":"Ambalipura","society":"Purwa Whitehall","furnishing":"FF","tenant":"MALE","bathroom":0,"url":"http://nobr.kr/sy/rM38V"},{"id":"53fea90c2b","lat":12.960763,"lng":77.742145,"bhk":"2BHK","rent":17375,"deposit":50000,"size":1250,"locality":"Whitefield","society":"Sraddha Splendor","furnishing":"SF","tenant":"MALE","bathroom":2,"url":"http://nobr.kr/sy/kZFMp4"},{"id":"e78e830b5f","lat":12.836988,"lng":77.687907,"bhk":"3BHK","rent":9000,"deposit":20000,"size":1412,"locality":"Electronic City","society":"Paras Maitri","furnishing":"FF","tenant":"FEMALE","bathroom":3,"url":"http://nobr.kr/sy/qkK6g"},{"id":"8fee462ed8","lat":12.90531,"lng":77.705404,"bhk":"3BHK","rent":18500,"deposit":67000,"size":2100,"locality":"Carmelaram","society":"Big Banyan Roots","furnishing":"SF","tenant":"MALE","bathroom":0,"url":"http://nobr.kr/sy/gthVK2"},{"id":"1e7e98165e","lat":12.812942,"lng":77.58053,"bhk":"3BHK","rent":17500,"deposit":60000,"size":1850,"locality":"Bannerughatta","society":"Casa Ansal Apartments","furnishing":"FF","tenant":"FEMALE","bathroom":0,"url":"http://nobr.kr/sy/xbRz15"},{"id":"2d564b1529","lat":13.146091,"lng":77.638926,"bhk":"3BHK","rent":20000,"deposit":100000,"size":1700,"locality":"Devanahalli","society":"Purva Zenium","furnishing":"SF","tenant":"MALE","bathroom":0,"url":"http://nobr.kr/sy/B251n4"},{"id":"4de19f3434","lat":12.971219,"lng":77.637022,"bhk":"4BHK","rent":15000,"deposit":30000,"size":2000,"locality":"Indira Nagar","society":"Independent House","furnishing":"FF","tenant":"MALE","bathroom":4,"url":"http://nobr.kr/sy/j3LWd5"},{"id":"4199641c78","lat":12.854569,"lng":77.670818,"bhk":"1BHK","rent":3000,"deposit":5000,"size":500,"locality":"Electronic City","society":"standalone building ","furnishing":"SF","tenant":"FEMALE","bathroom":0,"url":"http://nobr.kr/sy/8V1c5"},{"id":"4673d00f9f","lat":12.926383,"lng":77.665437,"bhk":"3BHK","rent":24500,"deposit":68000,"size":1900,"locality":"Iblur Village","society":"Suncity Apartments","furnishing":"SF","tenant":"MALE","bathroom":0,"url":"http://nobr.kr/sy/jknrY4"},{"id":"4265d41197","lat":12.92985,"lng":77.673247,"bhk":"3BHK","rent":16666,"deposit":50000,"size":1500,"locality":"Cluster_bellandur 38 Abhee Prince Apartment, Bellandur, Bengaluru, Karnataka 560103, India","society":"Abhee Prince","furnishing":"SF","tenant":"FEMALE","bathroom":0,"url":"http://nobr.kr/sy/2bCs15"},{"id":"91475c2436","lat":12.925792,"lng":77.671508,"bhk":"3BHK","rent":16000,"deposit":50000,"size":1350,"locality":"Bellandur, Bengaluru","society":"Parijatha Apartments","furnishing":"SF","tenant":"FEMALE","bathroom":0,"url":"http://nobr.kr/sy/sDNF75"},{"id":"a290c63b24","lat":12.978286,"lng":77.638755,"bhk":"2BHK","rent":8000,"deposit":25000,"size":1200,"locality":" Chinmaya Mission Hospital Road, Stage 2, Stage 1, Indiranagar, Bengaluru, Karnataka, India","society":"Independent House","furnishing":"SF","tenant":"MALE","bathroom":4,"url":"http://nobr.kr/sy/1VVM65"},{"id":"7756e70484","lat":12.98015,"lng":77.733834,"bhk":"3BHK","rent":14700,"deposit":60000,"size":1350,"locality":"Whitefield, Bangalore","society":"Foyer Infinity, Whitefield, Bangalore","furnishing":"SF","tenant":"MALE","bathroom":0,"url":"http://nobr.kr/sy/NYGm6"},{"id":"9d9e6b0647","lat":12.921267,"lng":77.676417,"bhk":"2BHK","rent":21000,"deposit":60000,"size":1200,"locality":"Bellandur","society":"Sri Sathya Sai Shakthi Nilayam Apartments","furnishing":"FF","tenant":"MALE","bathroom":0,"url":"http://nobr.kr/sy/RwsSQ"},{"id":"df8188029c","lat":12.835039,"lng":77.690898,"bhk":"3BHK","rent":12000,"deposit":50000,"size":1555,"locality":"Mahendra Aarna - Apartments in Electronic City","society":"Mahendra Aarna Apartments","furnishing":"SF","tenant":"MALE","bathroom":0,"url":"http://nobr.kr/sy/xDTVJ3"},{"id":"37c5b618e8","lat":12.95663,"lng":77.728204,"bhk":"3BHK","rent":10000,"deposit":45000,"size":1500,"locality":"Brookefield","society":"Parimala Sunridge","furnishing":"UF","tenant":"MALE","bathroom":3,"url":"http://nobr.kr/sy/jn2f15"},{"id":"d95d702673","lat":12.944,"lng":77.754,"bhk":"3BHK","rent":26000,"deposit":52000,"size":1740,"locality":"Whitefield","society":"Unicca Emporis","furnishing":"FF","tenant":"MALE","bathroom":3,"url":"http://nobr.kr/sy/mfQMN4"},{"id":"412cf10c33","lat":12.884397,"lng":77.667087,"bhk":"3BHK","rent":19333,"deposit":200000,"size":1500,"locality":"Kudlu","society":"SJR Blue Water","furnishing":"SF","tenant":"FEMALE","bathroom":0,"url":"http://nobr.kr/sy/v8jYR4"},{"id":"b9e3b20bb0","lat":12.861937,"lng":77.614076,"bhk":"2BHK","rent":42000,"deposit":84000,"size":1200,"locality":"Yelenahalli","society":"prestige song of the south","furnishing":"FF","tenant":"MALE","bathroom":0,"url":"http://nobr.kr/sy/xWkDr4"},{"id":"5074594054","lat":12.957879,"lng":77.746182,"bhk":"3BHK","rent":15500,"deposit":55000,"size":1875,"locality":"Whitefield","society":"Brigade Harmony","furnishing":"SF","tenant":"MALE","bathroom":3,"url":"http://nobr.kr/sy/WgVK92"},{"id":"0c7a0816f7","lat":12.884567,"lng":77.57017,"bhk":"3BHK","rent":20000,"deposit":50000,"size":1507,"locality":"Konanakunte","society":"Apartment","furnishing":"FF","tenant":"FEMALE","bathroom":0,"url":"http://nobr.kr/sy/NN4BN"},{"id":"6189380903","lat":12.840202,"lng":77.648243,"bhk":"3BHK","rent":9900,"deposit":33000,"size":1300,"locality":"Electronic City","society":"Ittina Mahavir, Electronic City","furnishing":"FF","tenant":"FEMALE","bathroom":0,"url":"http://nobr.kr/sy/sqh2Q4"},{"id":"81e67b0303","lat":12.981037,"lng":77.558919,"bhk":"3BHK","rent":15750,"deposit":1,"size":1350,"locality":"Rajajinagar","society":"Independent House","furnishing":"SF","tenant":"MALE","bathroom":0,"url":"http://nobr.kr/sy/7ykzN4"},{"id":"49ca77153d","lat":12.978737,"lng":77.75017,"bhk":"2BHK","rent":9000,"deposit":25000,"size":800,"locality":" Whitefield, Bangalore","society":"Siri Lotus Livein","furnishing":"SF","tenant":"MALE","bathroom":0,"url":"http://nobr.kr/sy/864Pk"},{"id":"82aaa10a6a","lat":12.78413,"lng":77.658039,"bhk":"2BHK","rent":25000,"deposit":40000,"size":950,"locality":"Jigani","society":"DLF Maiden Heights","furnishing":"FF","tenant":"MALE","bathroom":0,"url":"http://nobr.kr/sy/NqTgB2"},{"id":"2165821880","lat":12.976211,"lng":77.620525,"bhk":"2BHK","rent":12000,"deposit":150000,"size":1200,"locality":"Someshwarpura","society":"standalone builing ","furnishing":"SF","tenant":"FEMALE","bathroom":0,"url":"http://nobr.kr/sy/2jgJ82"},{"id":"a73ced177c","lat":12.923256,"lng":77.609954,"bhk":"2BHK","rent":13000,"deposit":30000,"size":1800,"locality":"52/1, Tavarekere, Cashier Layout, 1st Stage, BTM Layout, Bengaluru, Karnataka 560029, India","society":"Independent House","furnishing":"FF","tenant":"MALE","bathroom":0,"url":"http://nobr.kr/sy/LSnf53"},{"id":"20080f12ad","lat":12.913395,"lng":77.651084,"bhk":"3BHK","rent":17000,"deposit":40000,"size":1000,"locality":"HSR Layout","society":"AP","furnishing":"FF","tenant":"MALE","bathroom":0,"url":"http://nobr.kr/sy/RYJVK3"},{"id":"edf7a71dde","lat":12.988721,"lng":77.68433,"bhk":"2BHK","rent":20000,"deposit":20000,"size":1200,"locality":"Mahadevapura","society":"STANDALONE BUILDING","furnishing":"FF","tenant":"MALE","bathroom":0,"url":"http://nobr.kr/sy/f5kLw2"},{"id":"007c9219df","lat":12.939976,"lng":77.704087,"bhk":"4BHK","rent":10000,"deposit":20000,"size":1883,"locality":"Marathahalli","society":"Isha Casablanca","furnishing":"FF","tenant":"MALE","bathroom":0,"url":"http://nobr.kr/sy/R4b9B3"},{"id":"67572c0503","lat":13.020916,"lng":77.761792,"bhk":"4BHK","rent":7350,"deposit":20000,"size":2422,"locality":"Kannamangala","society":"Awho Sandeep Vihar","furnishing":"SF","tenant":"MALE","bathroom":3,"url":"http://nobr.kr/sy/YsHDP4"},{"id":"8680f83455","lat":12.926383,"lng":77.665437,"bhk":"3BHK","rent":21500,"deposit":60000,"size":2400,"locality":"Iblur Village","society":"Suncity Apartments","furnishing":"FF","tenant":"MALE","bathroom":3,"url":"http://nobr.kr/sy/G9TmN4"},{"id":"40d87b00ea","lat":12.956937,"lng":77.721786,"bhk":"3BHK","rent":25000,"deposit":50000,"size":1700,"locality":"Brookefield","society":"Sraddha Silver Springs","furnishing":"FF","tenant":"FEMALE","bathroom":0,"url":"http://nobr.kr/sy/fNWQ45"},{"id":"45702f0276","lat":13.012255,"lng":77.652116,"bhk":"2BHK","rent":8000,"deposit":15000,"size":700,"locality":"Banaswadi","society":"Independent House","furnishing":"SF","tenant":"FEMALE","bathroom":0,"url":"http://nobr.kr/sy/n1dF2"},{"id":"6d4f9e34b2","lat":12.958252,"lng":77.586541,"bhk":"2BHK","rent":12000,"deposit":20000,"size":1200,"locality":"Sudhama Nagar","society":"Expressions","furnishing":"FF","tenant":"FEMALE","bathroom":0,"url":"http://nobr.kr/sy/MyLjj"},{"id":"076dad32dc","lat":13.018177,"lng":77.654943,"bhk":"3BHK","rent":16000,"deposit":50000,"size":1300,"locality":"Horamavu ","society":"smr vinay estate","furnishing":"FF","tenant":"FEMALE","bathroom":3,"url":"http://nobr.kr/sy/mRM8X"},{"id":"deb8af2f6f","lat":12.899556,"lng":77.644109,"bhk":"3BHK","rent":14000,"deposit":50000,"size":1200,"locality":"Nandanam, #11, PKM Layout, Hosapalya, Hosapalaya, Muneshwara Nagar, Bengaluru, Karnataka 560068, India","society":"Active Meenakshi Paradise","furnishing":"SF","tenant":"FEMALE","bathroom":0,"url":"http://nobr.kr/sy/YR3L25"},{"id":"16535f2d8e","lat":12.919732,"lng":77.690198,"bhk":"3BHK","rent":29500,"deposit":116000,"size":1200,"locality":"Bellandur","society":"Adarsh Palm Retreat","furnishing":"FF","tenant":"MALE","bathroom":0,"url":"http://nobr.kr/sy/L4jYd5"},{"id":"3da4fc41a1","lat":12.842662,"lng":77.587379,"bhk":"2BHK","rent":8500,"deposit":25000,"size":600,"locality":"Bangalore","society":"Kudva Residency","furnishing":"FF","tenant":"MALE","bathroom":2,"url":"http://nobr.kr/sy/95Q4W4"},{"id":"69a4402bef","lat":12.881035,"lng":77.760204,"bhk":"3BHK","rent":25000,"deposit":150000,"size":1266,"locality":"Choudadenahalli","society":"Suvastu Oak Leaf","furnishing":"FF","tenant":"FEMALE","bathroom":0,"url":"http://nobr.kr/sy/sCQm12"},{"id":"096a4518b0","lat":12.847729,"lng":77.675539,"bhk":"2BHK","rent":5000,"deposit":5000,"size":850,"locality":"Electronic City Phase 2","society":"Independent House","furnishing":"SF","tenant":"FEMALE","bathroom":0,"url":"http://nobr.kr/sy/znD6S4"},{"id":"5b9e650dc2","lat":12.971132,"lng":77.713846,"bhk":"3BHK","rent":16666,"deposit":40000,"size":1617,"locality":"Brookefield","society":"Sterling Brookside ","furnishing":"FF","tenant":"MALE","bathroom":0,"url":"http://nobr.kr/sy/xrVZS4"},{"id":"05ab26091f","lat":12.888662,"lng":77.676768,"bhk":"3BHK","rent":14500,"deposit":42000,"size":1500,"locality":"Choodasandra","society":"Gr Sankalpa, Choodasandra","furnishing":"FF","tenant":"MALE","bathroom":0,"url":"http://nobr.kr/sy/nQ4HT3"},{"id":"ef24a50f7d","lat":12.941114,"lng":77.704697,"bhk":"2BHK","rent":23500,"deposit":75000,"size":1100,"locality":"Panathur","society":"Anuraag Anmol","furnishing":"FF","tenant":"FEMALE","bathroom":0,"url":"http://nobr.kr/sy/SynL15"},{"id":"4ff2650d70","lat":13.008045,"lng":77.629997,"bhk":"3BHK","rent":10000,"deposit":50000,"size":1500,"locality":"Lingarajapuram","society":"standalone building ","furnishing":"FF","tenant":"FEMALE","bathroom":0,"url":"http://nobr.kr/sy/y1jzF2"},{"id":"11e6fc13ec","lat":12.912169,"lng":77.666255,"bhk":"3BHK","rent":25000,"deposit":25000,"size":1600,"locality":"Haralur","society":"Shubh Enclave","furnishing":"FF","tenant":"FEMALE","bathroom":0,"url":"http://nobr.kr/sy/5cY3t3"},{"id":"3bc5c60462","lat":12.987034,"lng":77.763069,"bhk":"4BHK","rent":15000,"deposit":15000,"size":2800,"locality":"Channasandra","society":"Independent House","furnishing":"SF","tenant":"MALE","bathroom":0,"url":"http://nobr.kr/sy/ZdSFh"},{"id":"e5da280e14","lat":12.902,"lng":77.702,"bhk":"2BHK","rent":46000,"deposit":250000,"size":1300,"locality":"Carmelaram","society":"Parkside East By Brigade, Carmelaram","furnishing":"SF","tenant":"MALE","bathroom":0,"url":"http://nobr.kr/sy/VBQ5P4"},{"id":"d97fea4dff","lat":12.997408,"lng":77.722324,"bhk":"2BHK","rent":45000,"deposit":100000,"size":979,"locality":"KR Puram","society":"BRR Classic","furnishing":"FF","tenant":"FEMALE","bathroom":0,"url":"http://nobr.kr/sy/Trg7X4"},{"id":"bd369954e2","lat":12.8638,"lng":77.568069,"bhk":"2BHK","rent":6000,"deposit":20000,"size":1200,"locality":"Golahalli","society":"Kavin Aditya Residency","furnishing":"FF","tenant":"MALE","bathroom":1,"url":"http://nobr.kr/sy/Zx8Bd"},{"id":"3847560672","lat":12.90298,"lng":77.624194,"bhk":"3BHK","rent":23666,"deposit":70000,"size":1685,"locality":" Bommanahalli, Bangalore","society":"SNN Raj Grandeur,  Bommanahalli, Bangalore","furnishing":"FF","tenant":"MALE","bathroom":3,"url":"http://nobr.kr/sy/w3qTV"},{"id":"4d93a81b3d","lat":13.06496,"lng":77.625585,"bhk":"3BHK","rent":15000,"deposit":30000,"size":1800,"locality":"Thanisandra","society":"Unishire Panamera, Thanisandra","furnishing":"FF","tenant":"MALE","bathroom":0,"url":"http://nobr.kr/sy/DxPZX2"},{"id":"384015077e","lat":12.9651,"lng":77.718343,"bhk":"2BHK","rent":25000,"deposit":60000,"size":1500,"locality":"AECS Layout","society":"Independent House","furnishing":"SF","tenant":"FEMALE","bathroom":0,"url":"http://nobr.kr/sy/bbSPS2"},{"id":"a6def30c06","lat":12.96982,"lng":77.749972,"bhk":"2BHK","rent":16000,"deposit":16000,"size":1321,"locality":"Whitefield","society":"ARK Cloud City","furnishing":"FF","tenant":"FEMALE","bathroom":2,"url":"http://nobr.kr/sy/n2tpC2"},{"id":"61797b0aaa","lat":13.115036,"lng":77.578671,"bhk":"3BHK","rent":10000,"deposit":70000,"size":1535,"locality":"Yelahanka New Town","society":"Prestige Monte Carlo","furnishing":"FF","tenant":"MALE","bathroom":0,"url":"http://nobr.kr/sy/4CsCS2"},{"id":"5565e514a0","lat":12.910912,"lng":77.684418,"bhk":"3BHK","rent":28000,"deposit":100000,"size":1200,"locality":"Sompura","society":"Bavisha Urban Homes Phase 1","furnishing":"SF","tenant":"FEMALE","bathroom":3,"url":"http://nobr.kr/sy/zPqMX2"},{"id":"cea008090c","lat":12.908942,"lng":77.646453,"bhk":"2BHK","rent":15000,"deposit":75000,"size":1200,"locality":"Garden Layout, Sector 2, HSR Layout","society":"Independent House","furnishing":"SF","tenant":"FEMALE","bathroom":0,"url":"http://nobr.kr/sy/p6gPV2"},{"id":"e0ef3d1898","lat":12.962102,"lng":77.533718,"bhk":"1BHK","rent":5000,"deposit":5000,"size":400,"locality":"Attiguppe","society":"SB","furnishing":"FF","tenant":"FEMALE","bathroom":0,"url":"http://nobr.kr/sy/fVBR3"},{"id":"32c7601907","lat":12.899955,"lng":77.604838,"bhk":"2BHK","rent":18500,"deposit":60000,"size":1250,"locality":"Bilekahalli","society":"Sapthagiri Enclave ","furnishing":"FF","tenant":"MALE","bathroom":0,"url":"http://nobr.kr/sy/7PkqN3"},{"id":"e346650ac7","lat":12.901499,"lng":77.629515,"bhk":"3BHK","rent":23000,"deposit":70000,"size":1310,"locality":"Bommanahalli","society":"Salarpuria Sattva Greenage","furnishing":"FF","tenant":"FEMALE","bathroom":0,"url":"http://nobr.kr/sy/gpPrC3"},{"id":"7710fb0d47","lat":12.957755,"lng":77.59925,"bhk":"2BHK","rent":12000,"deposit":24000,"size":900,"locality":"Shanti Nagar","society":"Shanti Nagar, Shanti Nagar, Shanti Nagar","furnishing":"FF","tenant":"FEMALE","bathroom":0,"url":"http://nobr.kr/sy/PWN1G3"},{"id":"6f5e250f83","lat":12.874108,"lng":77.579173,"bhk":"3BHK","rent":15000,"deposit":50000,"size":1674,"locality":"Jp Nagar Phase 8","society":"Thirumala Anemone","furnishing":"FF","tenant":"FEMALE","bathroom":3,"url":"http://nobr.kr/sy/x7NY72"},{"id":"f0284904f8","lat":12.880662,"lng":77.557581,"bhk":"1RK","rent":6000,"deposit":50000,"size":500,"locality":"Venkat Vidya Mandir, Doddakallasandra","society":"Independent House","furnishing":"SF","tenant":"MALE","bathroom":1,"url":"http://nobr.kr/sy/rB9p15"},{"id":"41b5d518ac","lat":12.983511,"lng":77.733151,"bhk":"3BHK","rent":10000,"deposit":20000,"size":1385,"locality":"Whitefield","society":"Ar Gr Signature","furnishing":"FF","tenant":"MALE","bathroom":0,"url":"http://nobr.kr/sy/JgZTc5"},{"id":"9eaa88063d","lat":12.895152,"lng":77.66016,"bhk":"3BHK","rent":19000,"deposit":100000,"size":1450,"locality":"Haralur","society":"Puravankara Purva Skywood ","furnishing":"SF","tenant":"FEMALE","bathroom":0,"url":"http://nobr.kr/sy/8DWr34"},{"id":"c96a893511","lat":12.983114,"lng":77.640579,"bhk":"4BHK","rent":31000,"deposit":93000,"size":1500,"locality":"145, 100 Feet Rd, H Colony, Indiranagar, Bengaluru, Karnataka 560038, India","society":"Independent House","furnishing":"FF","tenant":"MALE","bathroom":0,"url":"http://nobr.kr/sy/D1nz73"},{"id":"4348920a1e","lat":12.9937,"lng":77.678621,"bhk":"3BHK","rent":12500,"deposit":60000,"size":1500,"locality":"Mahadevapura","society":"Shivnag Dharani Heights","furnishing":"FF","tenant":"MALE","bathroom":0,"url":"http://nobr.kr/sy/m1JX45"},{"id":"dcf411095b","lat":12.906034,"lng":77.644464,"bhk":"2BHK","rent":15250,"deposit":50000,"size":1000,"locality":"HSR Layout","society":"standalone building","furnishing":"FF","bathroom":0,"url":"http://nobr.kr/sy/6ywV92"},{"id":"27d1ce06e1","lat":13.03033,"lng":77.750745,"bhk":"2BHK","rent":15000,"deposit":50000,"size":800,"locality":"Doddabanahalli","society":"Chandra giri","furnishing":"FF","bathroom":0,"url":"http://nobr.kr/sy/rmScJ3"},{"id":"4319061760","lat":13.026037,"lng":77.672561,"bhk":"2BHK","rent":9000,"deposit":18000,"size":1100,"locality":"Kalkere","society":"Independent House","furnishing":"SF","tenant":"MALE","bathroom":0,"url":"http://nobr.kr/sy/txg9C3"},{"id":"daf24d05b9","lat":12.898677,"lng":77.656935,"bhk":"4BHK","rent":20000,"deposit":120000,"size":2200,"locality":"Haralur","society":"Standalone Building","furnishing":"FF","tenant":"MALE","bathroom":0,"url":"http://nobr.kr/sy/9q5gX"},{"id":"9b3a7a0ed0","lat":12.927509,"lng":77.671539,"bhk":"3BHK","rent":26000,"deposit":125000,"size":1694,"locality":"Bellandur","society":"Serene Homes, Green glen layout, Bellandur","furnishing":"FF","tenant":"MALE","bathroom":0,"url":"http://nobr.kr/sy/D4Vxg2"},{"id":"1e0c130579","lat":12.939976,"lng":77.704087,"bhk":"4BHK","rent":20000,"deposit":40000,"size":1883,"locality":"Marathahalli","society":"Isha Casablanca","furnishing":"FF","tenant":"MALE","bathroom":4,"url":"http://nobr.kr/sy/dX7c7"},{"id":"a9501a1029","lat":12.939348,"lng":77.630846,"bhk":"2BHK","rent":17000,"deposit":50000,"size":800,"locality":"Ejipura","society":"KDM Square Apartments, Ejipura","furnishing":"SF","tenant":"MALE","bathroom":0,"url":"http://nobr.kr/sy/YqSfP"},{"id":"6e4db300bf","lat":12.952876,"lng":77.712479,"bhk":"3BHK","rent":22500,"deposit":100000,"size":1910,"locality":"Ganga Chelston","society":"Ganga Chelston","furnishing":"FF","tenant":"FEMALE","bathroom":0,"url":"http://nobr.kr/sy/PW9H13"},{"id":"32f5882b1a","lat":12.896107,"lng":77.57015,"bhk":"2BHK","rent":10000,"deposit":20000,"size":1200,"locality":"Yelachenahalli","society":"Balajii nivas","furnishing":"FF","tenant":"MALE","bathroom":0,"url":"http://nobr.kr/sy/fCm8Z2"},{"id":"c46f582154","lat":12.970343,"lng":77.700647,"bhk":"3BHK","rent":11000,"deposit":41666,"size":1700,"locality":"Karthik Nagar","society":"Pleasantville","furnishing":"SF","tenant":"MALE","bathroom":0,"url":"http://nobr.kr/sy/VkmQF"},{"id":"f3ce7f1032","lat":12.917796,"lng":77.669461,"bhk":"3BHK","rent":27000,"deposit":100000,"size":2500,"locality":"Bellandur","society":"Ideb Springfields","furnishing":"FF","tenant":"MALE","bathroom":0,"url":"http://nobr.kr/sy/FwnT92"},{"id":"0a7e86232d","lat":12.938825,"lng":77.552078,"bhk":"2BHK","rent":20000,"deposit":120000,"size":1000,"locality":"Banashankari","society":"Independent House","furnishing":"SF","tenant":"FEMALE","bathroom":0,"url":"http://nobr.kr/sy/S1VGD2"},{"id":"2f4cd420d5","lat":13.043803,"lng":77.566439,"bhk":"3BHK","rent":20000,"deposit":75000,"size":1700,"locality":"R.M.V. 2nd Stage","society":"Sterling Residency, RMV 2nd Stage","furnishing":"FF","tenant":"MALE","bathroom":0,"url":"http://nobr.kr/sy/KRyvT3"},{"id":"2f4cd420d5","lat":13.043803,"lng":77.566439,"bhk":"3BHK","rent":20000,"deposit":75000,"size":1700,"locality":"R.M.V. 2nd Stage","society":"Sterling Residency, RMV 2nd Stage","furnishing":"FF","tenant":"MALE","bathroom":0,"url":"http://nobr.kr/sy/KRyvT3"},{"id":"efe1df22bf","lat":12.96982,"lng":77.749972,"bhk":"3BHK","rent":15500,"deposit":50000,"size":1600,"locality":"Whitefield","society":"Balaji Elegance","furnishing":"SF","tenant":"MALE","bathroom":0,"url":"http://nobr.kr/sy/vbtVy"},{"id":"3720c8047b","lat":12.867712,"lng":77.651004,"bhk":"3BHK","rent":12000,"deposit":24000,"size":1750,"locality":"Basapura","society":"Sai Enclave, Basapura","furnishing":"FF","tenant":"FEMALE","bathroom":0,"url":"http://nobr.kr/sy/HxcFm3"},{"id":"c14f490af4","lat":13.014309,"lng":77.760908,"bhk":"2BHK","rent":18500,"deposit":50000,"size":1307,"locality":"Whitefield","society":"Alpine Viva, Whitefield","furnishing":"FF","tenant":"FEMALE","bathroom":0,"url":"http://nobr.kr/sy/WHGkN2"},{"id":"6db15621f6","lat":12.887312,"lng":77.468999,"bhk":"3BHK","rent":8000,"deposit":25000,"size":1082,"locality":"Mysore Road","society":"Provident Sunworth City","furnishing":"SF","tenant":"FEMALE","bathroom":0,"url":"http://nobr.kr/sy/DF8Jr"},{"id":"ff64d70f20","lat":12.937212,"lng":77.702463,"bhk":"1BHK","rent":10000,"deposit":25000,"size":1400,"locality":"Panathur","society":"Independent House","furnishing":"FF","tenant":"MALE","bathroom":0,"url":"http://nobr.kr/sy/7QWDr4"},{"id":"793cce0049","lat":13.017154,"lng":77.657995,"bhk":"4BHK","rent":23750,"deposit":125000,"size":2000,"locality":"Banaswadi","society":"Ajmera Arista","furnishing":"SF","tenant":"MALE","bathroom":0,"url":"http://nobr.kr/sy/J6Y8c5"},{"id":"72eeb502d1","lat":12.98592,"lng":77.670047,"bhk":"2BHK","rent":7500,"deposit":7500,"size":1000,"locality":"Kaggadasapura","society":"Uron Apartment","furnishing":"SF","tenant":"MALE","bathroom":0,"url":"http://nobr.kr/sy/cMWQV2"},{"id":"b793100378","lat":12.968461,"lng":77.671925,"bhk":"1BHK","rent":6000,"deposit":20000,"size":900,"locality":"Orchid International school","society":"Near Orchid international school ","furnishing":"SF","tenant":"MALE","bathroom":0,"url":"http://nobr.kr/sy/kYM2N3"},{"id":"c3ec052d03","lat":12.925522,"lng":77.673388,"bhk":"3BHK","rent":24750,"deposit":100000,"size":1500,"locality":"Bellandur","society":"Sindhu Amazon Apartment","furnishing":"FF","tenant":"MALE","bathroom":0,"url":"http://nobr.kr/sy/PxnB65"},{"id":"d4e8910a55","lat":12.865216,"lng":77.595676,"bhk":"2BHK","rent":8500,"deposit":8500,"size":1000,"locality":"Agrahara","society":"Prithvi Residency","furnishing":"SF","tenant":"MALE","bathroom":0,"url":"http://nobr.kr/sy/hcfXq3"},{"id":"41addd0ed8","lat":12.906582,"lng":77.611835,"bhk":"2BHK","rent":20000,"deposit":75000,"size":800,"locality":"20, 19th Cross Rd, EWS Colony, Stage 2, BTM Layout, Bengaluru, Karnataka 560076, India","society":"standlone building","furnishing":"UF","tenant":"FEMALE","bathroom":0,"url":"http://nobr.kr/sy/JRRPz3"},{"id":"41addd0ed8","lat":12.906582,"lng":77.611835,"bhk":"2BHK","rent":20000,"deposit":75000,"size":800,"locality":"20, 19th Cross Rd, EWS Colony, Stage 2, BTM Layout, Bengaluru, Karnataka 560076, India","society":"standlone building","furnishing":"UF","tenant":"FEMALE","bathroom":0,"url":"http://nobr.kr/sy/JRRPz3"},{"id":"88e1a911b4","lat":12.900523,"lng":77.694364,"bhk":"2BHK","rent":65000,"deposit":200000,"size":1381,"locality":"477, Kudlu Main Rd, near Srk Garden, Kudlu, Bengaluru, Karnataka 560068, India","society":"Surya Shakti Green Lands Srk Gardens","furnishing":"FF","tenant":"MALE","bathroom":0,"url":"http://nobr.kr/sy/WmxW55"},{"id":"759a924416","lat":12.949572,"lng":77.713876,"bhk":"2BHK","rent":10000,"deposit":30000,"size":800,"locality":"36","society":"Independent House","furnishing":"FF","tenant":"MALE","bathroom":0,"url":"http://nobr.kr/sy/nk7175"},{"id":"59b7e70587","lat":12.983022,"lng":77.634646,"bhk":"2BHK","rent":9000,"deposit":50000,"size":600,"locality":"Indira Nagar ","society":"Independent House","furnishing":"UF","tenant":"FEMALE","bathroom":0,"url":"http://nobr.kr/sy/CWVrf"},{"id":"96440b402f","lat":12.953262,"lng":77.705467,"bhk":"3BHK","rent":13000,"deposit":40000,"size":1600,"locality":"Ittina Abha E BLOCK","society":"Ittina Abha","furnishing":"SF","tenant":"MALE","bathroom":0,"url":"http://nobr.kr/sy/qhR973"},{"id":"cf83f939c5","lat":12.976961,"lng":77.664888,"bhk":"2BHK","rent":12500,"deposit":50000,"size":1100,"locality":"152/21C/23, 13th Cross Rd, Cauveri Colony, GM Palya, C V Raman Nagar, Bengaluru, Karnataka 560093, India","society":"Independent House","furnishing":"SF","tenant":"MALE","bathroom":0,"url":"http://nobr.kr/sy/tVcjP2"},{"id":"94d92220b3","lat":12.90356,"lng":77.703565,"bhk":"3BHK","rent":15000,"deposit":67000,"size":1600,"locality":"Chikkakannalli","society":"Aanvi Alps sarjapur, Chikkakannalli","furnishing":"SF","tenant":"FEMALE","bathroom":0,"url":"http://nobr.kr/sy/n68C83"},{"id":"d1a5cc08a7","lat":12.923398,"lng":77.637576,"bhk":"2BHK","rent":25000,"deposit":75000,"size":1300,"locality":"Koramangala","society":"Bildens Swarganga","furnishing":"FF","tenant":"MALE","bathroom":0,"url":"http://nobr.kr/sy/yrT2N3"},{"id":"6eada20b9b","lat":13.002661,"lng":77.623979,"bhk":"1BHK","rent":15000,"deposit":50000,"size":300,"locality":" Cooke Town","society":"Independent House","furnishing":"FF","tenant":"FEMALE","bathroom":1,"url":"http://nobr.kr/sy/hTmZJ4"},{"id":"2662502294","lat":12.841869,"lng":77.674526,"bhk":"3BHK","rent":15000,"deposit":40000,"size":1200,"locality":"48, Hosur Rd, near D Mart, Veer Sandra, Electronic City, Bengaluru, Karnataka 560100, India","society":"Pramuk Aqua Heights","furnishing":"SF","tenant":"FEMALE","bathroom":0,"url":"http://nobr.kr/sy/X4pW5"},{"id":"3fd06055eb","lat":13.01926,"lng":77.635141,"bhk":"2BHK","rent":14000,"deposit":50000,"size":1200,"locality":"kammanahalli, ramiah layout","society":"Independent House","furnishing":"FF","tenant":"FEMALE","bathroom":2,"url":"http://nobr.kr/sy/dZXcX3"},{"id":"8a3f4d127d","lat":12.977553,"lng":77.626285,"bhk":"2BHK","rent":12000,"deposit":24000,"size":700,"locality":"Halasuru","society":"Standalone building","furnishing":"SF","tenant":"MALE","bathroom":2,"url":"http://nobr.kr/sy/FNb5Y4"},{"id":"1189aa131a","lat":12.936621,"lng":77.705298,"bhk":"3BHK","rent":23000,"deposit":70000,"size":1397,"locality":"DC Capitol Apartments","society":"DC Capitol, Panathur","furnishing":"FF","tenant":"MALE","bathroom":0,"url":"http://nobr.kr/sy/1rgGH3"},{"id":"cac9cc0358","lat":13.043826,"lng":77.515079,"bhk":"1BHK","rent":5250,"deposit":12500,"size":600,"locality":"T. Dasarahalli","society":"Dasarahall","furnishing":"SF","tenant":"FEMALE","bathroom":0,"url":"http://nobr.kr/sy/Jq8Dt2"},{"id":"95342810cd","lat":12.934421,"lng":77.630973,"bhk":"3BHK","rent":20000,"deposit":80000,"size":1900,"locality":"Koramangala","society":"Independent House","furnishing":"SF","tenant":"MALE","bathroom":0,"url":"http://nobr.kr/sy/CRHZT2"},{"id":"ea2df232b9","lat":12.96982,"lng":77.749972,"bhk":"3BHK","rent":15000,"deposit":20000,"size":1500,"locality":"Whitefield","society":"Ittina Anu Apartments","furnishing":"FF","tenant":"FEMALE","bathroom":2,"url":"http://nobr.kr/sy/2Jf1B4"},{"id":"554c7c51f0","lat":13.1,"lng":77.61,"bhk":"2BHK","rent":15000,"deposit":40000,"size":701,"locality":"Jakkur","society":"Bren Northern Lights","furnishing":"FF","tenant":"FEMALE","bathroom":0,"url":"http://nobr.kr/sy/DfMKG2"},{"id":"fa8f900d3e","lat":12.857558,"lng":77.786406,"bhk":"3BHK","rent":28000,"deposit":55000,"size":1450,"locality":"Wipro Sarjapura Road","society":"Suvastu Kings Square","furnishing":"SF","tenant":"FEMALE","bathroom":0,"url":"http://nobr.kr/sy/rz7PL"},{"id":"b83a310e6b","lat":12.938879,"lng":77.741205,"bhk":"1BHK","rent":4250,"deposit":10000,"size":800,"locality":"Varthur","society":"Independent House","furnishing":"SF","tenant":"MALE","bathroom":0,"url":"http://nobr.kr/sy/3NKYn3"},{"id":"3085e811be","lat":12.892217,"lng":77.667347,"bhk":"3BHK","rent":12000,"deposit":12000,"size":1300,"locality":"Haralur","society":"Silver County Apartment","furnishing":"FF","tenant":"MALE","bathroom":0,"url":"http://nobr.kr/sy/Svyh83"},{"id":"471a6e0025","lat":12.87837,"lng":77.67061,"bhk":"3BHK","rent":20000,"deposit":50000,"size":1200,"locality":"Parappana Agrahara","society":"Mahaveer Ranches","furnishing":"SF","tenant":"MALE","bathroom":0,"url":"http://nobr.kr/sy/2wyK92"},{"id":"15216305f5","lat":13.050624,"lng":77.599371,"bhk":"3BHK","rent":15000,"deposit":37000,"size":1300,"locality":"Hebbal Kempapura","society":"Sterling Gardens","furnishing":"SF","tenant":"FEMALE","bathroom":0,"url":"http://nobr.kr/sy/hQTR53"},{"id":"a4669f0bfd","lat":12.950287,"lng":77.700478,"bhk":"1BHK","rent":13555,"deposit":40000,"size":1000,"locality":"Munnekollal","society":"standalone building","furnishing":"UF","tenant":"FEMALE","bathroom":0,"url":"http://nobr.kr/sy/szjG63"},{"id":"4d2b110e87","lat":13.059819,"lng":77.57703,"bhk":"2BHK","rent":12300,"deposit":60000,"size":800,"locality":"Kodigehalli","society":"Independent House","furnishing":"SF","tenant":"FEMALE","bathroom":0,"url":"http://nobr.kr/sy/7p4F33"},{"id":"55442b24a7","lat":12.967581,"lng":77.641949,"bhk":"3BHK","rent":17000,"deposit":60000,"size":1200,"locality":"Indiranagar","society":"Haseen Manzil Apartment","furnishing":"FF","tenant":"MALE","bathroom":0,"url":"http://nobr.kr/sy/pRZKr3"},{"id":"a0912329d8","lat":12.945252,"lng":77.674729,"bhk":"3BHK","rent":22700,"deposit":80000,"size":2200,"locality":"Bellandur","society":"Independent House","furnishing":"FF","tenant":"MALE","bathroom":0,"url":"http://nobr.kr/sy/Rf1VM"},{"id":"efb8080643","lat":12.900038,"lng":77.602031,"bhk":"1BHK","rent":5000,"deposit":20000,"size":400,"locality":"Bangalore","society":"Sri Ganesh Pg","furnishing":"SF","tenant":"FEMALE","bathroom":1,"url":"http://nobr.kr/sy/gmVrf5"},{"id":"9a85e31de2","lat":12.989785,"lng":77.664588,"bhk":"1RK","rent":12000,"deposit":12000,"size":500,"locality":"C V Raman Nagar","society":"Independent House","furnishing":"SF","tenant":"FEMALE","bathroom":4,"url":"http://nobr.kr/sy/dSy23"},{"id":"cfebf455c6","lat":12.96313,"lng":77.724111,"bhk":"3BHK","rent":15500,"deposit":33333,"size":2200,"locality":"Willow Herbs Apartment","society":"Willow Herbs","furnishing":"SF","tenant":"FEMALE","bathroom":3,"url":"http://nobr.kr/sy/FPWJZ4"},{"id":"aed4bf0a8e","lat":13.029372,"lng":77.751779,"bhk":"2BHK","rent":14500,"deposit":40000,"size":950,"locality":" Whitefield","society":"Sumadhura Aspire Aurum","furnishing":"FF","tenant":"MALE","bathroom":2,"url":"http://nobr.kr/sy/vcgn72"},{"id":"43d8a16513","lat":12.831418,"lng":77.688056,"bhk":"2BHK","rent":8000,"deposit":8000,"size":918,"locality":"Electronic City","society":"Habulus Elite 2","furnishing":"SF","tenant":"MALE","bathroom":2,"url":"http://nobr.kr/sy/z6ptY4"},{"id":"5fb1553b9d","lat":12.916681,"lng":77.605183,"bhk":"2BHK","rent":12000,"deposit":25000,"size":600,"locality":"BTM Layout","society":"Ahad Enclave","furnishing":"SF","tenant":"FEMALE","bathroom":1,"url":"http://nobr.kr/sy/PS3ck2"},{"id":"82cd12045a","lat":12.916678,"lng":77.621947,"bhk":"3BHK","rent":17000,"deposit":45000,"size":2000,"locality":"BTM Layout","society":"ST appartments","furnishing":"FF","tenant":"MALE","bathroom":3,"url":"http://nobr.kr/sy/nxk3w"},{"id":"80952b149f","lat":12.916561,"lng":77.644892,"bhk":"2BHK","rent":13000,"deposit":30000,"size":1000,"locality":"HSR Layout","society":"Standalone building","furnishing":"FF","tenant":"MALE","bathroom":2,"url":"http://nobr.kr/sy/YmmrT4"},{"id":"1c4ef91456","lat":13.028925,"lng":77.556206,"bhk":"2BHK","rent":5000,"deposit":20000,"size":600,"locality":"Mathikere","society":"Independent House","furnishing":"FF","tenant":"MALE","bathroom":0,"url":"http://nobr.kr/sy/mLpt5"},{"id":"21c8f1519e","lat":13.002088,"lng":77.661608,"bhk":"3BHK","rent":18000,"deposit":63000,"size":1300,"locality":"kasturinagar","society":"Independent House","furnishing":"FF","tenant":"MALE","bathroom":0,"url":"http://nobr.kr/sy/jRgbc5"},{"id":"cc25011d7f","lat":12.937194,"lng":77.566665,"bhk":"1RK","rent":7000,"deposit":30000,"size":250,"locality":"Basavanagudi","society":"Standalone building","furnishing":"SF","tenant":"MALE","bathroom":0,"url":"http://nobr.kr/sy/7XkCV2"},{"id":"27b9da4b4a","lat":12.989937,"lng":77.695205,"bhk":"4BHK","rent":18000,"deposit":75000,"size":1800,"locality":"Sai Krupa Harmony Annexe Tower-2, Sai Krupa Harmony Annexe, Laxmi Sagar Layout, Mahadevapura, Bengaluru, Karnataka 560048, India","society":"Sai Krupa Harmony","furnishing":"FF","tenant":"MALE","bathroom":0,"url":"http://nobr.kr/sy/QsKPP3"},{"id":"860e8309d9","lat":12.984,"lng":77.776,"bhk":"3BHK","rent":15000,"deposit":60000,"size":1640,"locality":"Whitefield","society":"GK Tropical Springs","furnishing":"FF","tenant":"MALE","bathroom":3,"url":"http://nobr.kr/sy/sC6Gd4"},{"id":"a9c87731aa","lat":12.926304,"lng":77.699699,"bhk":"2BHK","rent":50000,"deposit":150000,"size":1120,"locality":"Bhoganhalli","society":"Satyadeva Mejesty","furnishing":"FF","tenant":"FEMALE","bathroom":0,"url":"http://nobr.kr/sy/7hWF55"},{"id":"ff5bfc0f6f","lat":12.842926,"lng":77.645981,"bhk":"3BHK","rent":13250,"deposit":27000,"size":3000,"locality":"SY No 100, P Ajmera Annex, Neeladri Rd, Karuna Nagar, Electronic City Phase I, Electronic City, Bengaluru, Karnataka 560100, India","society":"Vaibhav Residency","furnishing":"SF","tenant":"MALE","bathroom":0,"url":"http://nobr.kr/sy/wxqPQ4"},{"id":"732b43048c","lat":12.900894,"lng":77.609129,"bhk":"2BHK","rent":15000,"deposit":30000,"size":1180,"locality":"Bilekahalli","society":"Pristine Paradise","furnishing":"FF","tenant":"MALE","bathroom":0,"url":"http://nobr.kr/sy/dXKvQ4"},{"id":"a1b8b41bbf","lat":13.045088,"lng":77.626896,"bhk":"3BHK","rent":13616,"deposit":61750,"size":1600,"locality":"Thanisandra","society":"Independent House","furnishing":"FF","tenant":"MALE","bathroom":0,"url":"http://nobr.kr/sy/xxvGL"},{"id":"3752f941e3","lat":12.921082,"lng":77.615493,"bhk":"2BHK","rent":19500,"deposit":60000,"size":900,"locality":"BTM Layout","society":"Independent House","furnishing":"SF","tenant":"MALE","bathroom":0,"url":"http://nobr.kr/sy/3bhmX2"},{"id":"5cfcc53b89","lat":13.050375,"lng":77.57689,"bhk":"3BHK","rent":8000,"deposit":8000,"size":1000,"locality":"Kodigehalli","society":"Ratna Residences","furnishing":"FF","tenant":"MALE","bathroom":0,"url":"http://nobr.kr/sy/Lz2Ht4"},{"id":"c53e9d48b9","lat":12.981715,"lng":77.757088,"bhk":"2BHK","rent":18000,"deposit":60000,"size":1100,"locality":"Whitefield global school football ground","society":"green earth atrium","furnishing":"FF","tenant":"FEMALE","bathroom":0,"url":"http://nobr.kr/sy/SfvRd4"},{"id":"7ecd6d21c4","lat":12.905497,"lng":77.721798,"bhk":"3BHK","rent":15000,"deposit":30000,"size":1535,"locality":"Mullur","society":"Vaishno Excellency Apartments","furnishing":"FF","tenant":"MALE","bathroom":0,"url":"http://nobr.kr/sy/jNbwT"},{"id":"e235ed5f25","lat":12.971661,"lng":77.594552,"bhk":"1RK","rent":8500,"deposit":17000,"size":200,"locality":"Girinagar, Phase 2","society":"Independent House","furnishing":"UF","tenant":"FEMALE","bathroom":0,"url":"http://nobr.kr/sy/Q73tf5"},{"id":"c6536e3921","lat":12.954319,"lng":77.706811,"bhk":"1BHK","rent":9500,"deposit":40000,"size":600,"locality":"Indira Nagar ","society":"Renuka Nilaya","furnishing":"FF","tenant":"FEMALE","bathroom":0,"url":"http://nobr.kr/sy/HK8D83"},{"id":"495cf61ed6","lat":12.958156,"lng":77.616458,"bhk":"2BHK","rent":13667,"deposit":37500,"size":1100,"locality":"Neelasandra","society":"Ashirwad Apartment","furnishing":"SF","tenant":"FEMALE","bathroom":0,"url":"http://nobr.kr/sy/GHYxd3"},{"id":"ba4d000b24","lat":13.017731,"lng":77.656959,"bhk":"1BHK","rent":8000,"deposit":15000,"size":300,"locality":"Banaswadi","society":"Independent House","furnishing":"FF","tenant":"MALE","bathroom":0,"url":"http://nobr.kr/sy/DsGtz2"},{"id":"7758a605a3","lat":12.996489,"lng":77.578151,"bhk":"2BHK","rent":16500,"deposit":60000,"size":1200,"locality":" Guttahalli","society":"Guttahalli","furnishing":"FF","tenant":"FEMALE","bathroom":0,"url":"http://nobr.kr/sy/Fpdns"},{"id":"92137828d2","lat":12.949416,"lng":77.70255,"bhk":"2BHK","rent":20000,"deposit":1,"size":900,"locality":"Marathahalli","society":"standalone Building","furnishing":"FF","tenant":"MALE","bathroom":0,"url":"http://nobr.kr/sy/S1KH95"},{"id":"29ca4818d4","lat":12.851816,"lng":77.557323,"bhk":"2BHK","rent":13000,"deposit":25000,"size":1250,"locality":"JP Nagar","society":"DS Max Stone Hills","furnishing":"FF","tenant":"MALE","bathroom":0,"url":"http://nobr.kr/sy/kRY5Y2"},{"id":"f074084252","lat":12.950675,"lng":77.718202,"bhk":"3BHK","rent":14000,"deposit":45000,"size":1956,"locality":"Whitefield","society":"Vaswani Brentwood","furnishing":"FF","tenant":"MALE","bathroom":0,"url":"http://nobr.kr/sy/d4n284"},{"id":"e1a1801866","lat":12.901338,"lng":77.623641,"bhk":"4BHK","rent":13000,"deposit":39000,"size":1989,"locality":"Bommanahalli","society":"Axis Citrino","furnishing":"FF","tenant":"MALE","bathroom":0,"url":"http://nobr.kr/sy/S94SW2"},{"id":"2705b90090","lat":12.988087,"lng":77.687791,"bhk":"2BHK","rent":25270,"deposit":75000,"size":1200,"locality":"Mahadevapura,Bengaluru","society":"Nester Harmony","furnishing":"FF","tenant":"MALE","bathroom":0,"url":"http://nobr.kr/sy/5jmMc5"},{"id":"71b52d20e8","lat":12.885978,"lng":77.648909,"bhk":"1BHK","rent":7350,"deposit":30000,"size":800,"locality":"Kudlu","society":"Standalone Building","furnishing":"SF","tenant":"FEMALE","bathroom":0,"url":"http://nobr.kr/sy/Dpghh"},{"id":"cdc6c81383","lat":12.928606,"lng":77.681491,"bhk":"3BHK","rent":20000,"deposit":100000,"size":1403,"locality":"Bellandur","society":"Sterling Ascentia","furnishing":"SF","tenant":"FEMALE","bathroom":0,"url":"http://nobr.kr/sy/Dg9fQ4"},{"id":"cdc6c81383","lat":12.928606,"lng":77.681491,"bhk":"3BHK","rent":20000,"deposit":100000,"size":1403,"locality":"Bellandur","society":"Sterling Ascentia","furnishing":"SF","tenant":"FEMALE","bathroom":0,"url":"http://nobr.kr/sy/Dg9fQ4"},{"id":"68aa560d36","lat":12.952438,"lng":77.715203,"bhk":"2BHK","rent":15000,"deposit":22000,"size":1200,"locality":"Munnekollal","society":"Pavani Paradise","furnishing":"FF","tenant":"FEMALE","bathroom":0,"url":"http://nobr.kr/sy/tgPYH3"},{"id":"60880611c6","lat":12.905879,"lng":77.696035,"bhk":"3BHK","rent":20000,"deposit":66000,"size":1436,"locality":"Doddakannelli","society":"Standalone Building","furnishing":"SF","tenant":"FEMALE","bathroom":0,"url":"http://nobr.kr/sy/D7vfL"},{"id":"46fae00248","lat":13.015124,"lng":77.760464,"bhk":"3BHK","rent":13000,"deposit":55000,"size":1800,"locality":"Whitefield","society":"Alpine Viva","furnishing":"SF","tenant":"MALE","bathroom":0,"url":"http://nobr.kr/sy/BGdrs3"},{"id":"09c5860bf5","lat":12.997131,"lng":77.561436,"bhk":"1BHK","rent":4000,"deposit":10000,"size":700,"locality":"Rajajinagar","society":"Independent House","furnishing":"FF","tenant":"FEMALE","bathroom":0,"url":"http://nobr.kr/sy/QcWbk2"},{"id":"09c5860bf5","lat":12.997131,"lng":77.561436,"bhk":"1BHK","rent":4000,"deposit":10000,"size":700,"locality":"Rajajinagar","society":"Independent House","furnishing":"FF","tenant":"FEMALE","bathroom":0,"url":"http://nobr.kr/sy/QcWbk2"},{"id":"7361a65b25","lat":12.916507,"lng":77.795614,"bhk":"2BHK","rent":30000,"deposit":50000,"size":900,"locality":"Signature Meadows","society":"signature meadows, gonighattapura, Bangalore","furnishing":"SF","tenant":"MALE","bathroom":2,"url":"http://nobr.kr/sy/HFfhQ4"},{"id":"5a192a0a0d","lat":12.865921,"lng":77.599648,"bhk":"3BHK","rent":40000,"deposit":100000,"size":1600,"locality":"BLOCK-C2, ANANDA VALMARK TOWER-B, Hulimavu, Bengaluru, Karnataka 560076, India","society":"Valmark Ananda","furnishing":"FF","tenant":"MALE","bathroom":0,"url":"http://nobr.kr/sy/FTZvf5"},{"id":"b16f622b87","lat":13.005608,"lng":77.615238,"bhk":"3BHK","rent":18000,"deposit":100000,"size":1600,"locality":"Richards Town","society":"Nagarjuna Elysees","furnishing":"SF","tenant":"MALE","bathroom":0,"url":"http://nobr.kr/sy/V9DSM3"},{"id":"0fa1b16133","lat":12.900918,"lng":77.638883,"bhk":"3BHK","rent":18170,"deposit":36300,"size":1000,"locality":"HSR Layout","society":"apartment ","furnishing":"UF","bathroom":0,"url":"http://nobr.kr/sy/CqJBS"},{"id":"e305d80b58","lat":13.051952,"lng":77.650816,"bhk":"1RK","rent":10000,"deposit":45000,"size":660,"locality":"Byrathi","society":"Independent House","furnishing":"SF","tenant":"FEMALE","bathroom":0,"url":"http://nobr.kr/sy/gPPrC3"},{"id":"b1b20e18d4","lat":12.939976,"lng":77.704087,"bhk":"4BHK","rent":10000,"deposit":20000,"size":1883,"locality":"Isha Casablanca","society":"Isha Casablanca, Panathur","furnishing":"FF","tenant":"MALE","bathroom":4,"url":"http://nobr.kr/sy/DzHKd2"},{"id":"7eb8d62218","lat":12.957729,"lng":77.599213,"bhk":"3BHK","rent":12000,"deposit":30000,"size":1500,"locality":"Shanti Nagar","society":"S N Raj Paradise Shanti Nagar","furnishing":"FF","tenant":"MALE","bathroom":0,"url":"http://nobr.kr/sy/6jzh4"},{"id":"6f9c94215c","lat":12.911449,"lng":77.679882,"bhk":"3BHK","rent":17000,"deposit":50000,"size":1500,"locality":"Vinayaka Residency, Survey No. 2/1,HNR Layout 2nd Cross, Behind Sai Avenue Block - 1, Norbert Church Rd, Kasavanahalli, Bengaluru, Karnataka 560035, India","society":"Vinayaka Residency","furnishing":"FF","tenant":"MALE","bathroom":0,"url":"http://nobr.kr/sy/D57V32"},{"id":"2bfbb202a6","lat":12.873273,"lng":77.563619,"bhk":"2BHK","rent":20000,"deposit":80000,"size":752,"locality":"J. P. Nagar","society":"Vaishnavi Oasis","furnishing":"FF","tenant":"FEMALE","bathroom":0,"url":"http://nobr.kr/sy/yhgkH3"},{"id":"b705a1029b","lat":12.887032,"lng":77.656183,"bhk":"2BHK","rent":25000,"deposit":50000,"size":1800,"locality":"Kudlu","society":"ND FASHION","furnishing":"SF","tenant":"FEMALE","bathroom":0,"url":"http://nobr.kr/sy/WL2qZ"},{"id":"ac1e1722bd","lat":13.079333,"lng":77.642101,"bhk":"2BHK","rent":16850,"deposit":75000,"size":925,"locality":"Thanisandra","society":"Bhartiya Nikoo Homes 5","furnishing":"FF","tenant":"FEMALE","bathroom":2,"url":"http://nobr.kr/sy/H7SQw2"},{"id":"185d0722e9","lat":12.919732,"lng":77.690198,"bhk":"3BHK","rent":25000,"deposit":50000,"size":1860,"locality":"Bellandur","society":"Adarsh Palm Retreat","furnishing":"FF","tenant":"FEMALE","bathroom":0,"url":"http://nobr.kr/sy/rGh2q2"},{"id":"3250ba0349","lat":12.907874,"lng":77.601111,"bhk":"2BHK","rent":10000,"deposit":30000,"size":600,"locality":"BTM Layout","society":"Independent House","furnishing":"SF","bathroom":0,"url":"http://nobr.kr/sy/v1Ypz3"},{"id":"34f55303ba","lat":13.085279,"lng":77.644533,"bhk":"3BHK","rent":23500,"deposit":93000,"size":1500,"locality":"Thanisandra","society":"Bhartiya City Nikoo Homes","furnishing":"SF","tenant":"MALE","bathroom":0,"url":"http://nobr.kr/sy/HMjp33"},{"id":"eea4c21bec","lat":12.932126,"lng":77.634439,"bhk":"3BHK","rent":23000,"deposit":80000,"size":1960,"locality":"Koramangala","society":"Independent House","furnishing":"SF","tenant":"MALE","bathroom":0,"url":"http://nobr.kr/sy/PpsbV2"},{"id":"7953092125","lat":12.835139,"lng":77.649519,"bhk":"2BHK","rent":10000,"deposit":20000,"size":977,"locality":"Electronics City Phase 1","society":"Gunina Jeno","furnishing":"SF","tenant":"MALE","bathroom":0,"url":"http://nobr.kr/sy/rWSNR4"},{"id":"30a2320b76","lat":12.883134,"lng":77.646767,"bhk":"3BHK","rent":20000,"deposit":50000,"size":1500,"locality":"Singasandra","society":"Kadamba Residency","furnishing":"FF","tenant":"MALE","bathroom":0,"url":"http://nobr.kr/sy/2thg55"},{"id":"f205500508","lat":13.012362,"lng":77.717212,"bhk":"4BHK","rent":25000,"deposit":150000,"size":2500,"locality":"Green India Harmony","society":"Independent House","furnishing":"FF","tenant":"FEMALE","bathroom":0,"url":"http://nobr.kr/sy/jgRcG3"},{"id":"75816e20c0","lat":13.014378,"lng":77.567697,"bhk":"3BHK","rent":8000,"deposit":20000,"size":1000,"locality":"Mathikere","society":"Independent House","furnishing":"SF","tenant":"FEMALE","bathroom":0,"url":"http://nobr.kr/sy/XQ32R4"},{"id":"32ca0f0d93","lat":12.890369,"lng":77.645583,"bhk":"1RK","rent":10000,"deposit":20000,"size":300,"locality":"VJRW+46P, Kudlu Main Rd, AECS Layout - A Block, Hal Layout, Singasandra, Bengaluru, Karnataka 560068, India","society":"nilaya","furnishing":"FF","tenant":"FEMALE","bathroom":0,"url":"http://nobr.kr/sy/Xxpvz3"},{"id":"aeb29608ca","lat":12.914439,"lng":77.496171,"bhk":"3BHK","rent":11000,"deposit":65000,"size":1800,"locality":"Mailasandra","society":"Independent House","furnishing":"FF","tenant":"MALE","bathroom":0,"url":"http://nobr.kr/sy/RSNsY2"},{"id":"87c324431b","lat":12.971132,"lng":77.713846,"bhk":"3BHK","rent":32500,"deposit":75000,"size":1840,"locality":" Brookefield","society":"Sterling Brookside , BLOCK-E, STERLING BROOKESIDE, EPIP Zone, Brookefield, Bengaluru, Karnataka 560037, India","furnishing":"FF","tenant":"MALE","bathroom":0,"url":"http://nobr.kr/sy/c5hb83"},{"id":"5f0c570ce0","lat":13.088246,"lng":77.63235,"bhk":"2BHK","rent":10000,"deposit":60000,"size":1015,"locality":"Thirumenahalli","society":"SLV Green City pvt","furnishing":"FF","tenant":"FEMALE","bathroom":0,"url":"http://nobr.kr/sy/Fz4yb"},{"id":"df43050642","lat":12.924971,"lng":77.667873,"bhk":"3BHK","rent":24000,"deposit":66000,"size":1800,"locality":"Ibbaluru","society":"alter apartment","furnishing":"FF","tenant":"MALE","bathroom":0,"url":"http://nobr.kr/sy/CC2925"},{"id":"6fd7591ba8","lat":13.014378,"lng":77.567697,"bhk":"3BHK","rent":10000,"deposit":20000,"size":1000,"locality":"Mathikere","society":"Independent House","furnishing":"SF","tenant":"FEMALE","bathroom":0,"url":"http://nobr.kr/sy/Tg5Dq"},{"id":"a910e61d9e","lat":13.046318,"lng":77.500803,"bhk":"3BHK","rent":6000,"deposit":20000,"size":1800,"locality":" Tumkur Road, Bangalore","society":"Sobha Garrison","furnishing":"FF","tenant":"MALE","bathroom":0,"url":"http://nobr.kr/sy/W5Nyp3"},{"id":"37154b1253","lat":12.932847,"lng":77.705118,"bhk":"2BHK","rent":16500,"deposit":25000,"size":800,"locality":"Panathur","society":"Hv Homes","furnishing":"FF","tenant":"MALE","bathroom":0,"url":"http://nobr.kr/sy/qbw595"},{"id":"67102e0962","lat":12.939674,"lng":77.628134,"bhk":"3BHK","rent":15500,"deposit":37000,"size":800,"locality":"Ejipura","society":"Meenakshi Residency","furnishing":"SF","tenant":"MALE","bathroom":0,"url":"http://nobr.kr/sy/hVh475"},{"id":"06a92a0172","lat":12.965351,"lng":77.64931,"bhk":"1BHK","rent":16000,"deposit":70000,"size":1200,"locality":"Kodihalli","society":"Will share","furnishing":"FF","tenant":"FEMALE","bathroom":0,"url":"http://nobr.kr/sy/g6gVX4"},{"id":"55ff3a20a5","lat":12.935454,"lng":77.632829,"bhk":"3BHK","rent":75000,"deposit":750000,"size":1400,"locality":"Koramangala S.T.Bed Wed workout location - Runners High","society":"Surya Aishwarya-11","furnishing":"FF","tenant":"MALE","bathroom":3,"url":"http://nobr.kr/sy/SshRd5"},{"id":"b61d7601ac","lat":12.939397,"lng":77.699212,"bhk":"2BHK","rent":15000,"deposit":30000,"size":1200,"locality":"Panathur","society":"Sanjeev Shine","furnishing":"FF","tenant":"MALE","bathroom":0,"url":"http://nobr.kr/sy/Wd5Xd2"},{"id":"7ba35a0b41","lat":12.895171,"lng":77.668645,"bhk":"1RK","rent":18000,"deposit":50000,"size":500,"locality":"Reliaable Lifestyle Layout","society":"reliable lifestyle layout","furnishing":"SF","tenant":"FEMALE","bathroom":0,"url":"http://nobr.kr/sy/W64fY2"},{"id":"7acb2c0889","lat":13.001432,"lng":77.622509,"bhk":"4BHK","rent":22500,"deposit":150000,"size":3000,"locality":"Cooke Town","society":"Elegant Pride Cooke Town","furnishing":"FF","tenant":"FEMALE","bathroom":0,"url":"http://nobr.kr/sy/YTGy65"},{"id":"0b45052660","lat":12.834468,"lng":77.663653,"bhk":"3BHK","rent":17000,"deposit":47000,"size":1750,"locality":"Electronic City","society":"Prestige Norwood","furnishing":"FF","tenant":"FEMALE","bathroom":0,"url":"http://nobr.kr/sy/JtmKh2"},{"id":"7296c22631","lat":12.98392,"lng":77.750865,"bhk":"3BHK","rent":25000,"deposit":28000,"size":2269,"locality":"Whitefield","society":"Parimala Skyview","furnishing":"FF","tenant":"FEMALE","bathroom":0,"url":"http://nobr.kr/sy/7Pxb83"},{"id":"aa1b5302dd","lat":12.965044,"lng":77.717193,"bhk":"3BHK","rent":14250,"deposit":40000,"size":1300,"locality":"520, B Block, AECS Layout, Marathahalli, Bengaluru, Karnataka 560037, India","society":"skn emerald","furnishing":"FF","tenant":"MALE","bathroom":0,"url":"http://nobr.kr/sy/Rq2xS2"},{"id":"aa1b5302dd","lat":12.965044,"lng":77.717193,"bhk":"3BHK","rent":14250,"deposit":40000,"size":1300,"locality":"520, B Block, AECS Layout, Marathahalli, Bengaluru, Karnataka 560037, India","society":"skn emerald","furnishing":"FF","tenant":"MALE","bathroom":0,"url":"http://nobr.kr/sy/Rq2xS2"},{"id":"80fc650632","lat":13.121005,"lng":77.617694,"bhk":"2BHK","rent":17200,"deposit":1,"size":500,"locality":"Dwarka Nagar","society":"standalone building","furnishing":"UF","tenant":"FEMALE","bathroom":0,"url":"http://nobr.kr/sy/W99W65"},{"id":"6ce6110d2a","lat":12.983075,"lng":77.747849,"bhk":"2BHK","rent":16000,"deposit":16500,"size":1000,"locality":"Whitefield","society":"Apartments","furnishing":"FF","tenant":"FEMALE","bathroom":0,"url":"http://nobr.kr/sy/4JBKg"},{"id":"2781c305e4","lat":12.934776,"lng":77.703175,"bhk":"3BHK","rent":20000,"deposit":60000,"size":1700,"locality":"WMXM+FH8, 1st Cross Rd, Yemalur, Bellandur, Bengaluru, Karnataka 560037, India","society":"Parimala Trinity","furnishing":"SF","tenant":"MALE","bathroom":0,"url":"http://nobr.kr/sy/TPgL63"},{"id":"933eb41084","lat":13.048747,"lng":77.6288,"bhk":"2BHK","rent":15500,"deposit":60000,"size":1418,"locality":"Sinthan Nagar","society":"Tnt Crescent","furnishing":"FF","tenant":"MALE","bathroom":0,"url":"http://nobr.kr/sy/qc1gv2"},{"id":"100c521bef","lat":12.96984,"lng":77.606939,"bhk":"2BHK","rent":5500,"deposit":5500,"size":1000,"locality":" Ashok Nagar ","society":"Private aparment","furnishing":"SF","tenant":"FEMALE","bathroom":0,"url":"http://nobr.kr/sy/wWGQ2"},{"id":"e8a8b13278","lat":12.968095,"lng":77.739469,"bhk":"2BHK","rent":25000,"deposit":50000,"size":1100,"locality":"Whitefield, Bangalore","society":"Sohum Isiri","furnishing":"FF","tenant":"MALE","bathroom":0,"url":"http://nobr.kr/sy/Hgc115"},{"id":"63b177088f","lat":12.914872,"lng":77.663455,"bhk":"3BHK","rent":26000,"deposit":60000,"size":1200,"locality":"HSR layout,Bengaluru","society":"SJR Park Vista, HSR layout,Bengaluru","furnishing":"FF","tenant":"FEMALE","bathroom":0,"url":"http://nobr.kr/sy/fz1yh2"},{"id":"0c5b620912","lat":12.93461,"lng":77.631098,"bhk":"2BHK","rent":15750,"deposit":60000,"size":800,"locality":"Koramangala","society":"Independent House","furnishing":"SF","tenant":"MALE","bathroom":0,"url":"http://nobr.kr/sy/bdrr35"},{"id":"0c5b620912","lat":12.93461,"lng":77.631098,"bhk":"2BHK","rent":15750,"deposit":60000,"size":800,"locality":"Koramangala","society":"Independent House","furnishing":"SF","tenant":"MALE","bathroom":0,"url":"http://nobr.kr/sy/bdrr35"},{"id":"24739405f0","lat":12.899484,"lng":77.644077,"bhk":"3BHK","rent":15030,"deposit":53000,"size":1345,"locality":"HSR Layout","society":"Active Meenakshi Paradise","furnishing":"SF","tenant":"FEMALE","bathroom":0,"url":"http://nobr.kr/sy/HDnt35"},{"id":"56cea80005","lat":12.881253,"lng":77.618316,"bhk":"1BHK","rent":13000,"deposit":40000,"size":600,"locality":"#42, Shree Sadguru Sai, Nyanapahalli Main Rd","society":"#42 Shree Sadguru Sai","furnishing":"SF","tenant":"FEMALE","bathroom":0,"url":"http://nobr.kr/sy/MQm535"},{"id":"8367cd0742","lat":12.907104,"lng":77.631038,"bhk":"3BHK","rent":18000,"deposit":70000,"size":1200,"locality":"HSR Layout","society":"Teja Residency","furnishing":"UF","tenant":"MALE","bathroom":0,"url":"http://nobr.kr/sy/2j9pR4"},{"id":"eb656c667f","lat":12.916713,"lng":77.674279,"bhk":"3BHK","rent":22700,"deposit":66600,"size":1700,"locality":"Sarjapur","society":"Srinivasa Classic","furnishing":"FF","tenant":"MALE","bathroom":3,"url":"http://nobr.kr/sy/YGs4Y4"},{"id":"b9d2321bfa","lat":12.939537,"lng":77.518979,"bhk":"2BHK","rent":14000,"deposit":100000,"size":1100,"locality":"GRC Brundavan","society":"GRC Brundavan","furnishing":"FF","tenant":"MALE","bathroom":0,"url":"http://nobr.kr/sy/gGZcS4"},{"id":"d22a760bfc","lat":12.945653,"lng":77.752451,"bhk":"3BHK","rent":20000,"deposit":50000,"size":1500,"locality":"Varthur","society":"Midtown Opulent","furnishing":"FF","tenant":"FEMALE","bathroom":2,"url":"http://nobr.kr/sy/gPMz65"},{"id":"e3a0c403b4","lat":12.894575,"lng":77.677601,"bhk":"3BHK","rent":24000,"deposit":100000,"size":1800,"locality":"Sarjapur","society":"Klassik Landmark Phase 3","furnishing":"FF","tenant":"MALE","bathroom":0,"url":"http://nobr.kr/sy/C11z95"},{"id":"8d72980c8c","lat":12.937427,"lng":77.701079,"bhk":"3BHK","rent":21700,"deposit":43400,"size":1600,"locality":"Kadubeesanahalli","society":"Vennela Shanthinikethan","furnishing":"FF","tenant":"FEMALE","bathroom":0,"url":"http://nobr.kr/sy/7wVNM2"},{"id":"d9cd420764","lat":12.961348,"lng":77.487136,"bhk":"1RK","rent":6000,"deposit":50000,"size":300,"locality":"Annapurneshwari Nagar","society":"standalone building","furnishing":"SF","bathroom":0,"url":"http://nobr.kr/sy/6PCjQ4"},{"id":"aa6afc06a4","lat":12.996664,"lng":77.607538,"bhk":"2BHK","rent":15000,"deposit":25000,"size":1150,"locality":"Frazer Town","society":"Nidhi Apartment","furnishing":"FF","tenant":"FEMALE","bathroom":0,"url":"http://nobr.kr/sy/RTRgq3"},{"id":"68d6a00188","lat":12.95278,"lng":77.623152,"bhk":"3BHK","rent":8000,"deposit":20000,"size":1500,"locality":"Viveka Nagar","society":"Standalone Building","furnishing":"UF","tenant":"MALE","bathroom":0,"url":"http://nobr.kr/sy/kcrC95"},{"id":"18ec40075b","lat":13.115466,"lng":77.606998,"bhk":"2BHK","rent":7500,"deposit":25000,"size":1248,"locality":"Yelahanka","society":"Hoysala Habitat, Yelahanka, nagenahalli","furnishing":"SF","tenant":"MALE","bathroom":0,"url":"http://nobr.kr/sy/ycV423"},{"id":"f1e17c2945","lat":12.97668,"lng":77.674386,"bhk":"2BHK","rent":7500,"deposit":50000,"size":1000,"locality":"Kaggadasapura","society":"Maithri Pride","furnishing":"SF","tenant":"MALE","bathroom":0,"url":"http://nobr.kr/sy/sS6bp3"},{"id":"1d0b9a0094","lat":13.023866,"lng":77.711528,"bhk":"3BHK","rent":15000,"deposit":40000,"size":1900,"locality":"Old Madras Road ","society":"Pashmina Waterfront","furnishing":"SF","tenant":"FEMALE","bathroom":0,"url":"http://nobr.kr/sy/vLSXT2"},{"id":"72c7740734","lat":12.926903,"lng":77.695735,"bhk":"2BHK","rent":22500,"deposit":62500,"size":1292,"locality":"Bhoganhalli","society":"Srivathsa Mayfair Anthem, Bhoganhalli","furnishing":"FF","tenant":"MALE","bathroom":0,"url":"http://nobr.kr/sy/zknY83"},{"id":"4756930ce5","lat":12.887514,"lng":77.628285,"bhk":"3BHK","rent":14000,"deposit":30000,"size":1410,"locality":"Hongasandra","society":"SR Flora ","furnishing":"FF","tenant":"FEMALE","bathroom":2,"url":"http://nobr.kr/sy/YTqFq2"},{"id":"80d57c2a5f","lat":12.912,"lng":77.645,"bhk":"3BHK","rent":15000,"deposit":50000,"size":1200,"locality":"Capri Apartment","society":"Capri Apartment HSR Layout","furnishing":"SF","tenant":"FEMALE","bathroom":0,"url":"http://nobr.kr/sy/NkcN54"},{"id":"d06fbb072a","lat":13.006442,"lng":77.762675,"bhk":"2BHK","rent":16000,"deposit":40000,"size":1032,"locality":"Krishnarajapuram","society":"DS-MAX SANGAM GRAND","furnishing":"FF","tenant":"FEMALE","bathroom":0,"url":"http://nobr.kr/sy/RrLXT4"},{"id":"ca9b5d19b8","lat":13.006929,"lng":77.704537,"bhk":"2BHK","rent":16000,"deposit":50000,"size":1100,"locality":"Kr Puram","society":"Jp Heights","furnishing":"FF","tenant":"FEMALE","bathroom":0,"url":"http://nobr.kr/sy/s3Xv55"},{"id":"cd3827190c","lat":12.907994,"lng":77.797114,"bhk":"3BHK","rent":20000,"deposit":20000,"size":1125,"locality":"Kamanahalli","society":"Independent House","furnishing":"FF","tenant":"MALE","bathroom":0,"url":"http://nobr.kr/sy/L3DC12"},{"id":"a6cbe20d27","lat":12.886211,"lng":77.656537,"bhk":"2BHK","rent":42000,"deposit":150000,"size":1327,"locality":"Parappana Agrahara","society":"G K Jewel City","furnishing":"FF","tenant":"MALE","bathroom":2,"url":"http://nobr.kr/sy/P1mPr2"},{"id":"1f45b829a8","lat":12.861932,"lng":77.614064,"bhk":"2BHK","rent":43000,"deposit":84000,"size":850,"locality":"Akshayanagar","society":"Prestige Song of the South","furnishing":"FF","tenant":"MALE","bathroom":0,"url":"http://nobr.kr/sy/hWCkr4"},{"id":"eec74428a1","lat":12.887505,"lng":77.468715,"bhk":"2BHK","rent":25000,"deposit":100000,"size":655,"locality":"****** Road","society":"Provident Sunworth City, Mysore Road","furnishing":"FF","tenant":"FEMALE","bathroom":0,"url":"http://nobr.kr/sy/bhw6h4"},{"id":"71e5fb0665","lat":12.8983,"lng":77.638508,"bhk":"2BHK","rent":30000,"deposit":60000,"size":800,"locality":"Muneshwara Nagar","society":"Jai Bhuvan HSR Trinity","furnishing":"SF","tenant":"FEMALE","bathroom":0,"url":"http://nobr.kr/sy/fCyB33"},{"id":"9e1eb81c66","lat":12.988565,"lng":77.698689,"bhk":"3BHK","rent":16000,"deposit":33000,"size":1400,"locality":"119, Sparkling Nest Rd, Garudachar Palya, Mahadevapura, Bengaluru, Karnataka 560093, India","society":"Neeladri Paradise","furnishing":"SF","tenant":"MALE","bathroom":0,"url":"http://nobr.kr/sy/McWrc5"},{"id":"21c52601ef","lat":12.90356,"lng":77.703565,"bhk":"3BHK","rent":20000,"deposit":60000,"size":1200,"locality":"Chikkakannalli","society":"Aanvi Alps sarjapur","furnishing":"FF","tenant":"MALE","bathroom":0,"url":"http://nobr.kr/sy/TXRhQ4"},{"id":"5420f00a16","lat":12.892555,"lng":77.6562,"bhk":"2BHK","rent":9000,"deposit":40000,"size":800,"locality":"Kudlu","society":"Sapthagiri Nilaya","furnishing":"SF","tenant":"MALE","bathroom":0,"url":"http://nobr.kr/sy/CNfGV4"},{"id":"387ec21fa1","lat":13.055072,"lng":77.641234,"bhk":"2BHK","rent":12000,"deposit":36000,"size":950,"locality":"Kothanur","society":"Independent House","furnishing":"FF","tenant":"FEMALE","bathroom":0,"url":"http://nobr.kr/sy/TQg3k3"},{"id":"9c1b795ab6","lat":12.979756,"lng":77.751463,"bhk":"2BHK","rent":35000,"deposit":100000,"size":1232,"locality":"Whitefield","society":"Agastya Guru Palatia Apartment","furnishing":"FF","tenant":"MALE","bathroom":2,"url":"http://nobr.kr/sy/jfHPt"},{"id":"2afaef1ae9","lat":12.939976,"lng":77.704087,"bhk":"4BHK","rent":18000,"deposit":40000,"size":1883,"locality":"Isha Casablanca","society":"Isha Casablanca","furnishing":"FF","tenant":"MALE","bathroom":0,"url":"http://nobr.kr/sy/PWv1j"},{"id":"439fd1221e","lat":12.95595,"lng":77.705785,"bhk":"3BHK","rent":10000,"deposit":20000,"size":1500,"locality":"Munnekolala","society":"Independent House","furnishing":"FF","tenant":"MALE","bathroom":0,"url":"http://nobr.kr/sy/cmZC14"},{"id":"e0a9a81188","lat":12.895413,"lng":77.617272,"bhk":"2BHK","rent":11000,"deposit":30000,"size":1200,"locality":"Bommanahalli","society":"Independent House","furnishing":"SF","tenant":"MALE","bathroom":0,"url":"http://nobr.kr/sy/6DNfY3"},{"id":"c6d9691392","lat":12.958025,"lng":77.52401,"bhk":"1BHK","rent":5000,"deposit":10000,"size":450,"locality":"Chandra Layout","society":"Independent House","furnishing":"SF","tenant":"FEMALE","bathroom":0,"url":"http://nobr.kr/sy/3bP1Q4"},{"id":"087ffd0e67","lat":12.96975,"lng":77.740528,"bhk":"3BHK","rent":17000,"deposit":70000,"size":1500,"locality":" Whitefield","society":"SS Felicity Homes","furnishing":"FF","tenant":"FEMALE","bathroom":0,"url":"http://nobr.kr/sy/1R2mW2"},{"id":"61272117de","lat":13.083742,"lng":77.484464,"bhk":"1BHK","rent":8000,"deposit":20000,"size":500,"locality":"Soladevanahalli,","society":"Independent House","furnishing":"SF","bathroom":0,"url":"http://nobr.kr/sy/PHbtg2"},{"id":"b20e9d1080","lat":13.056131,"lng":77.629718,"bhk":"1BHK","rent":8000,"deposit":30000,"size":700,"locality":"Thanisandra, Bengaluru","society":"Sai Indraprastha Apartmennt","furnishing":"SF","tenant":"MALE","bathroom":0,"url":"http://nobr.kr/sy/BmY9M3"},{"id":"c758a70176","lat":12.912079,"lng":77.669126,"bhk":"3BHK","rent":21000,"deposit":60000,"size":1500,"locality":" Ambalipura","society":"Purple links apartment","furnishing":"SF","tenant":"MALE","bathroom":0,"url":"http://nobr.kr/sy/F5tJ83"},{"id":"4452af0db7","lat":13.052403,"lng":77.646052,"bhk":"4+BHK","rent":8030,"deposit":15000,"size":1960,"locality":"Kothanur","society":"Independent House","furnishing":"FF","tenant":"FEMALE","bathroom":0,"url":"http://nobr.kr/sy/5bvq63"},{"id":"24993a16f2","lat":13.019249,"lng":77.550711,"bhk":"3BHK","rent":15250,"deposit":83334,"size":1750,"locality":"Yeshwanthpur","society":"Pratham Zen Indraprastha","furnishing":"SF","tenant":"MALE","bathroom":0,"url":"http://nobr.kr/sy/b8GgC3"},{"id":"cdc01f0707","lat":13.046819,"lng":77.600483,"bhk":"1BHK","rent":15000,"deposit":15000,"size":900,"locality":"46, 2nd Cross Rd, G Ramaiah Layout, North VAYUNANDANA EXTN LAYOUT, KEMPAPURA, Hebbal Kempapura, Bengaluru, Karnataka 560024, India","society":"Independent House","furnishing":"FF","tenant":"FEMALE","bathroom":0,"url":"http://nobr.kr/sy/hDgzs3"},{"id":"c7ba37069c","lat":12.990188,"lng":77.694996,"bhk":"4BHK","rent":23625,"deposit":85000,"size":1500,"locality":"Mahadevapura","society":"Sai Krupa Harmony","furnishing":"FF","tenant":"MALE","bathroom":0,"url":"http://nobr.kr/sy/CpW1T3"},{"id":"f6820e08f4","lat":13.010665,"lng":77.667877,"bhk":"2BHK","rent":15000,"deposit":20000,"size":1200,"locality":"Ramamurthy Nagar","society":"Aditi Eloquent Apartment","furnishing":"FF","tenant":"MALE","bathroom":2,"url":"http://nobr.kr/sy/KP4fH2"},{"id":"4aaf220c32","lat":12.975376,"lng":77.6174,"bhk":"2BHK","rent":13000,"deposit":30000,"size":700,"locality":"Ulsoor Rd","society":"Independent House","furnishing":"FF","tenant":"FEMALE","bathroom":2,"url":"http://nobr.kr/sy/fgwJB4"},{"id":"5fd17a08ab","lat":13.032633,"lng":77.658334,"bhk":"2BHK","rent":16000,"deposit":30000,"size":900,"locality":"Horamavu","society":"Independent House","furnishing":"FF","tenant":"FEMALE","bathroom":0,"url":"http://nobr.kr/sy/53Yy15"},{"id":"2a12300373","lat":12.93307,"lng":77.742689,"bhk":"3BHK","rent":20000,"deposit":100001,"size":1710,"locality":"Varthur","society":"SAROJ HARMONY","furnishing":"FF","tenant":"MALE","bathroom":0,"url":"http://nobr.kr/sy/fFzk73"},{"id":"2a12300373","lat":12.93307,"lng":77.742689,"bhk":"3BHK","rent":20000,"deposit":100001,"size":1710,"locality":"Varthur","society":"SAROJ HARMONY","furnishing":"FF","tenant":"MALE","bathroom":0,"url":"http://nobr.kr/sy/fFzk73"},{"id":"2cd9030afc","lat":13.029048,"lng":77.751922,"bhk":"2BHK","rent":14000,"deposit":40000,"size":955,"locality":"Whitefield","society":"Sumadhura Aspire Amber","furnishing":"FF","tenant":"MALE","bathroom":2,"url":"http://nobr.kr/sy/TZGm95"},{"id":"866f100286","lat":13.230186,"lng":77.723853,"bhk":"3BHK","rent":15000,"deposit":15000,"size":1700,"locality":"Devanahalli","society":"Brigade Orchards","furnishing":"FF","tenant":"MALE","bathroom":0,"url":"http://nobr.kr/sy/Zv1Rv2"},{"id":"9e1ed424fe","lat":12.940858,"lng":77.627827,"bhk":"2BHK","rent":9000,"deposit":20000,"size":1000,"locality":"Ejipura","society":"AMR Salar Apartments, Ejipura","furnishing":"SF","tenant":"FEMALE","bathroom":0,"url":"http://nobr.kr/sy/Mch2D2"},{"id":"7a7efd1e58","lat":13.020716,"lng":77.551826,"bhk":"3BHK","rent":23500,"deposit":100000,"size":2100,"locality":"Yeswanthpur","society":"Aparna Elina","furnishing":"FF","tenant":"MALE","bathroom":0,"url":"http://nobr.kr/sy/FKyFC3"},{"id":"4170c70ecf","lat":13.049909,"lng":77.612989,"bhk":"1RK","rent":18000,"deposit":75000,"size":200,"locality":"Thanisandra","society":"Independent House","furnishing":"FF","tenant":"MALE","bathroom":0,"url":"http://nobr.kr/sy/8vY5Q2"},{"id":"409a4313d4","lat":12.903669,"lng":77.640245,"bhk":"2BHK","rent":15000,"deposit":40000,"size":880,"locality":"HSR LAYOUT sectotr7","society":"Independent House","furnishing":"FF","tenant":"MALE","bathroom":0,"url":"http://nobr.kr/sy/JZw3L4"},{"id":"409a4313d4","lat":12.903669,"lng":77.640245,"bhk":"2BHK","rent":15000,"deposit":40000,"size":880,"locality":"HSR LAYOUT sectotr7","society":"Independent House","furnishing":"FF","tenant":"MALE","bathroom":0,"url":"http://nobr.kr/sy/JZw3L4"},{"id":"e3a42e12b5","lat":12.931836,"lng":77.489235,"bhk":"3BHK","rent":6000,"deposit":25000,"size":1200,"locality":"SMV Layout","society":"Independent House","furnishing":"FF","tenant":"FEMALE","bathroom":0,"url":"http://nobr.kr/sy/tQQLt3"},{"id":"52a39b1443","lat":12.82769,"lng":77.655939,"bhk":"3BHK","rent":14000,"deposit":42000,"size":1735,"locality":"Mahendra Elena, 5, Shikaripalya Main Rd, Electronic City Phase I, Electronic City, Bengaluru, Bommasandra, Karnataka 560100, India","society":"Mahendra Elena","furnishing":"FF","tenant":"FEMALE","bathroom":0,"url":"http://nobr.kr/sy/LjL1w2"},{"id":"94893503e7","lat":13.020916,"lng":77.761792,"bhk":"4BHK","rent":16000,"deposit":37500,"size":2062,"locality":"Kannamangala","society":"AWHO Sandeep Vihar","furnishing":"FF","tenant":"FEMALE","bathroom":0,"url":"http://nobr.kr/sy/FFG5p4"},{"id":"97b09d01ec","lat":13.035845,"lng":77.597043,"bhk":"2BHK","rent":8000,"deposit":10000,"size":1000,"locality":"Cholanayakanahalli, Hebbal","society":"Independent House","furnishing":"UF","tenant":"MALE","bathroom":0,"url":"http://nobr.kr/sy/9b7rm3"},{"id":"28fe3a070c","lat":12.917344,"lng":77.669528,"bhk":"3BHK","rent":22000,"deposit":67000,"size":1800,"locality":"Springfields Tower-4, Springfields, Ambalipura, Haralur, Bengaluru, Karnataka 560103, India","society":"Spring fields apartment","furnishing":"FF","tenant":"MALE","bathroom":0,"url":"http://nobr.kr/sy/RcwMT2"},{"id":"4f942b0ded","lat":12.991037,"lng":77.722472,"bhk":"3BHK","rent":21200,"deposit":67000,"size":1500,"locality":"Hoodi","society":"DSR lotus tower","furnishing":"FF","tenant":"FEMALE","bathroom":0,"url":"http://nobr.kr/sy/FTW6P4"},{"id":"f8d77808aa","lat":12.909955,"lng":77.675084,"bhk":"4BHK","rent":10750,"deposit":25000,"size":2800,"locality":"Kasavanahalli","society":"Golden Woods","furnishing":"SF","tenant":"MALE","bathroom":4,"url":"http://nobr.kr/sy/1rpP95"},{"id":"72434a0bd2","lat":12.906681,"lng":77.677262,"bhk":"3BHK","rent":24500,"deposit":66667,"size":1470,"locality":"Sarjapur Road","society":"Oceanus Vista","furnishing":"FF","tenant":"MALE","bathroom":0,"url":"http://nobr.kr/sy/rGnf35"},{"id":"f0c9920b5f","lat":12.966004,"lng":77.717828,"bhk":"3BHK","rent":14800,"deposit":30000,"size":1430,"locality":"AECS LAYOUT","society":"Sundher Paradise","furnishing":"SF","tenant":"MALE","bathroom":0,"url":"http://nobr.kr/sy/W1TyH"},{"id":"75e4e755b4","lat":12.913889,"lng":77.724608,"bhk":"2BHK","rent":19200,"deposit":100000,"size":1612,"locality":"Carmelaram","society":"Arcidia apt","furnishing":"SF","tenant":"MALE","bathroom":0,"url":"http://nobr.kr/sy/8ZVN75"},{"id":"a6978619b2","lat":13.057774,"lng":77.480379,"bhk":"1BHK","rent":4000,"deposit":6000,"size":500,"locality":"Anchepalya","society":"Independent House","furnishing":"UF","tenant":"MALE","bathroom":0,"url":"http://nobr.kr/sy/3tQMF2"},{"id":"24f2f42cec","lat":12.962935,"lng":77.7123,"bhk":"2BHK","rent":20000,"deposit":50000,"size":1250,"locality":"AECS Layout, Marathahalli","society":"Independent House","furnishing":"FF","tenant":"MALE","bathroom":0,"url":"http://nobr.kr/sy/WndVb5"},{"id":"0b640919cc","lat":12.99076,"lng":77.670854,"bhk":"3BHK","rent":10000,"deposit":16666,"size":1600,"locality":"Mahadevpura","society":"Samhitha Creek & Annex","furnishing":"SF","tenant":"FEMALE","bathroom":0,"url":"http://nobr.kr/sy/cSwq55"},{"id":"4723d81184","lat":13.03709,"lng":77.605708,"bhk":"2BHK","rent":19999,"deposit":50000,"size":1343,"locality":"Hebbal","society":"Shiviri Eshwari Enclave","furnishing":"FF","tenant":"FEMALE","bathroom":0,"url":"http://nobr.kr/sy/8KsTV2"},{"id":"7f2d411c35","lat":12.904216,"lng":77.675791,"bhk":"4BHK","rent":15000,"deposit":62500,"size":2500,"locality":"Kasavanahalli","society":"Independent House","furnishing":"FF","tenant":"MALE","bathroom":0,"url":"http://nobr.kr/sy/rT6bK3"},{"id":"cfab1d2844","lat":13.032898,"lng":77.626896,"bhk":"2BHK","rent":20000,"deposit":40000,"size":1200,"locality":"HBR Layout","society":"513","furnishing":"FF","tenant":"FEMALE","bathroom":0,"url":"http://nobr.kr/sy/NBphY2"},{"id":"1d96801f1a","lat":12.946786,"lng":77.648044,"bhk":"3BHK","rent":23000,"deposit":42000,"size":2000,"locality":"Challaghatta","society":"Golf Vista Tulip","furnishing":"FF","bathroom":0,"url":"http://nobr.kr/sy/sHdKX2"},{"id":"820c121545","lat":12.969156,"lng":77.688767,"bhk":"2BHK","rent":10000,"deposit":30000,"size":1200,"locality":"Doddanekkundi","society":"Independent House","furnishing":"FF","tenant":"FEMALE","bathroom":0,"url":"http://nobr.kr/sy/5T4St3"},{"id":"15a9ca13c4","lat":12.981638,"lng":77.540327,"bhk":"2BHK","rent":10500,"deposit":60000,"size":1000,"locality":"Banashankari","society":"Independent House","furnishing":"SF","tenant":"FEMALE","bathroom":0,"url":"http://nobr.kr/sy/N8ctc3"},{"id":"7663d802c1","lat":12.95562,"lng":77.708246,"bhk":"3BHK","rent":25000,"deposit":75000,"size":1536,"locality":"Munnekollal","society":"Pearl Residency","furnishing":"FF","tenant":"FEMALE","bathroom":0,"url":"http://nobr.kr/sy/Cy5By2"},{"id":"72b22b5cb9","lat":12.92887,"lng":77.583716,"bhk":"2BHK","rent":7000,"deposit":25000,"size":1000,"locality":"Jayanagar","society":"Pushkar ","furnishing":"UF","tenant":"FEMALE","bathroom":2,"url":"http://nobr.kr/sy/JYZq3"},{"id":"5eb04e0011","lat":12.950387,"lng":77.709265,"bhk":"2BHK","rent":16000,"deposit":45000,"size":650,"locality":"Munnekollal","society":"sri vari nilayam","furnishing":"SF","tenant":"FEMALE","bathroom":0,"url":"http://nobr.kr/sy/sLsKD3"},{"id":"67c2210be2","lat":12.938053,"lng":77.715129,"bhk":"4+BHK","rent":15500,"deposit":70000,"size":7500,"locality":"Varthur","society":"Skanda Moksh","furnishing":"SF","tenant":"MALE","bathroom":0,"url":"http://nobr.kr/sy/kjX663"},{"id":"39609e0a1e","lat":12.880837,"lng":77.676117,"bhk":"3BHK","rent":18000,"deposit":50000,"size":1640,"locality":"Choodasandra","society":"GR Sitara","furnishing":"FF","tenant":"MALE","bathroom":0,"url":"http://nobr.kr/sy/BnvjH3"},{"id":"39609e0a1e","lat":12.880837,"lng":77.676117,"bhk":"3BHK","rent":18000,"deposit":50000,"size":1640,"locality":"Choodasandra","society":"GR Sitara","furnishing":"FF","tenant":"MALE","bathroom":0,"url":"http://nobr.kr/sy/BnvjH3"},{"id":"2887f7046d","lat":12.91751,"lng":77.700968,"bhk":"3BHK","rent":16000,"deposit":45000,"size":1000,"locality":"Bhoganhalli","society":"Anuradha Elite Homes","furnishing":"FF","tenant":"MALE","bathroom":0,"url":"http://nobr.kr/sy/FDDds2"},{"id":"87aff92f3c","lat":12.971997,"lng":77.715368,"bhk":"3BHK","rent":16667,"deposit":50000,"size":1450,"locality":"Brookefield","society":"Sls Square","furnishing":"FF","tenant":"FEMALE","bathroom":2,"url":"http://nobr.kr/sy/86r3Y4"},{"id":"cd6bd3595a","lat":13.136862,"lng":77.570917,"bhk":"3BHK","rent":11500,"deposit":30000,"size":1700,"locality":"Ramky One North","society":"Ramky One Karnival","furnishing":"FF","tenant":"MALE","bathroom":2,"url":"http://nobr.kr/sy/jXR8P"},{"id":"138f010cf5","lat":12.857558,"lng":77.786406,"bhk":"4BHK","rent":31000,"deposit":62000,"size":3000,"locality":"Sarjapura","society":"The County by Address Maker","furnishing":"FF","tenant":"FEMALE","bathroom":0,"url":"http://nobr.kr/sy/RMxw83"},{"id":"138f010cf5","lat":12.857558,"lng":77.786406,"bhk":"4BHK","rent":31000,"deposit":62000,"size":3000,"locality":"Sarjapura","society":"The County by Address Maker","furnishing":"FF","tenant":"FEMALE","bathroom":0,"url":"http://nobr.kr/sy/RMxw83"},{"id":"45a0f80a47","lat":12.891799,"lng":77.583711,"bhk":"2BHK","rent":12500,"deposit":75000,"size":1150,"locality":"JP Nagar 7th Phase","society":"jd gardens ","furnishing":"FF","tenant":"FEMALE","bathroom":0,"url":"http://nobr.kr/sy/n9ttJ3"},{"id":"4c6ca20d3d","lat":13.050624,"lng":77.599371,"bhk":"3BHK","rent":12750,"deposit":38750,"size":1305,"locality":"Hebbal Kempapura","society":"Sterling Gardens, Hebbal Kempapura","furnishing":"SF","tenant":"FEMALE","bathroom":0,"url":"http://nobr.kr/sy/1y6953"},{"id":"ef5d551198","lat":12.964546,"lng":77.515043,"bhk":"2BHK","rent":6000,"deposit":50000,"size":800,"locality":"Nagarbhavi 2nd Stage","society":"Independent House","furnishing":"FF","tenant":"MALE","bathroom":0,"url":"http://nobr.kr/sy/Mw9nv2"},{"id":"32ea2f118a","lat":12.913347,"lng":77.635118,"bhk":"3BHK","rent":18000,"deposit":75000,"size":1700,"locality":"Konanakunte","society":"Metropolis Midtown Apartment","furnishing":"FF","tenant":"FEMALE","bathroom":0,"url":"http://nobr.kr/sy/RQrsx2"},{"id":"f1112205f6","lat":12.849987,"lng":77.649759,"bhk":"2BHK","rent":9500,"deposit":25000,"size":1010,"locality":"ICON School","society":"Balaji Serenity Apartment","furnishing":"SF","tenant":"MALE","bathroom":0,"url":"http://nobr.kr/sy/PxTyy2"},{"id":"8d98b41dd2","lat":12.893048,"lng":77.579635,"bhk":"3BHK","rent":20000,"deposit":100000,"size":1450,"locality":"J. P. Nagar","society":"Puravankara Elita Promenade","furnishing":"SF","tenant":"MALE","bathroom":0,"url":"http://nobr.kr/sy/6zMXS3"},{"id":"d0c5f12e5b","lat":12.893247,"lng":77.609756,"bhk":"2BHK","rent":11000,"deposit":36000,"size":1500,"locality":"Bilekahalli","society":"Vijaya Enclave","furnishing":"SF","tenant":"FEMALE","bathroom":0,"url":"http://nobr.kr/sy/53K3k3"},{"id":"11c5a231c1","lat":12.933851,"lng":77.559274,"bhk":"4BHK","rent":7000,"deposit":15500,"size":1200,"locality":"Banashankari","society":"Independent House","furnishing":"SF","tenant":"MALE","bathroom":0,"url":"http://nobr.kr/sy/GRHbg2"},{"id":"238bdc13e0","lat":12.988855,"lng":77.674654,"bhk":"2BHK","rent":9000,"deposit":30000,"size":1000,"locality":"Mahadevapura","society":"Independent House","furnishing":"SF","tenant":"MALE","bathroom":0,"url":"http://nobr.kr/sy/WwfZb3"},{"id":"46e8a1124a","lat":13.016313,"lng":77.678481,"bhk":"3BHK","rent":14000,"deposit":30000,"size":1300,"locality":"Ramamurthy Nagar","society":"Independent House","furnishing":"FF","tenant":"MALE","bathroom":0,"url":"http://nobr.kr/sy/cyvvn3"},{"id":"5b1da023bd","lat":13.031043,"lng":77.564683,"bhk":"1BHK","rent":7000,"deposit":15000,"size":500,"locality":"Mathikere","society":"Independent House","furnishing":"SF","tenant":"MALE","bathroom":0,"url":"http://nobr.kr/sy/LgpMs3"},{"id":"c4f8f90891","lat":12.898998,"lng":77.58738,"bhk":"3BHK","rent":12000,"deposit":50000,"size":2000,"locality":"22th, 19th Cross Rd, 5th Phase, Nagaraja Garden, J P Nagar Phase 5, J. P. Nagar, Bengaluru, Karnataka 560078, India","society":"Shams Residency","furnishing":"SF","tenant":"MALE","bathroom":0,"url":"http://nobr.kr/sy/Fcfvq3"},{"id":"c4f8f90891","lat":12.898998,"lng":77.58738,"bhk":"3BHK","rent":12000,"deposit":50000,"size":2000,"locality":"22th, 19th Cross Rd, 5th Phase, Nagaraja Garden, J P Nagar Phase 5, J. P. Nagar, Bengaluru, Karnataka 560078, India","society":"Shams Residency","furnishing":"SF","tenant":"MALE","bathroom":0,"url":"http://nobr.kr/sy/Fcfvq3"},{"id":"cc0ed0359f","lat":12.957896,"lng":77.709261,"bhk":"3BHK","rent":18500,"deposit":42500,"size":1800,"locality":"Marathahalli","society":"Spice Garden","furnishing":"SF","tenant":"MALE","bathroom":0,"url":"http://nobr.kr/sy/ksPjV"},{"id":"36be890138","lat":12.984209,"lng":77.67123,"bhk":"2BHK","rent":14531,"deposit":75000,"size":1308,"locality":"Kaggadasapura","society":"Gomati Heritage","furnishing":"FF","tenant":"FEMALE","bathroom":0,"url":"http://nobr.kr/sy/y4SDF"},{"id":"1e0b760c10","lat":13.064432,"lng":77.60518,"bhk":"3BHK","rent":17000,"deposit":50000,"size":2050,"locality":"Trendsquares Ortus Phase 2","society":"Trendsquares Ortus","furnishing":"SF","tenant":"FEMALE","bathroom":0,"url":"http://nobr.kr/sy/vHyRY2"},{"id":"1e0b760c10","lat":13.064432,"lng":77.60518,"bhk":"3BHK","rent":17000,"deposit":50000,"size":2050,"locality":"Trendsquares Ortus Phase 2","society":"Trendsquares Ortus","furnishing":"SF","tenant":"FEMALE","bathroom":0,"url":"http://nobr.kr/sy/vHyRY2"},{"id":"48b30419da","lat":13.240883,"lng":77.717039,"bhk":"1BHK","rent":7000,"deposit":25000,"size":500,"locality":"Devanahalli","society":"devanahalli","furnishing":"SF","tenant":"FEMALE","bathroom":0,"url":"http://nobr.kr/sy/xByyk3"},{"id":"2f75870b46","lat":13.009535,"lng":77.564436,"bhk":"3BHK","rent":21000,"deposit":120000,"size":2400,"locality":"Malleshwaram","society":"Kannadthi","furnishing":"FF","tenant":"MALE","bathroom":0,"url":"http://nobr.kr/sy/SfF5N3"},{"id":"f9b5a9107c","lat":12.970336,"lng":77.606562,"bhk":"2BHK","rent":13000,"deposit":37500,"size":900,"locality":"Neelasandra","society":"Independent House","furnishing":"FF","tenant":"MALE","bathroom":0,"url":"http://nobr.kr/sy/GTSwc"},{"id":"aa8fc90b71","lat":12.881391,"lng":77.631601,"bhk":"3BHK","rent":7000,"deposit":8000,"size":1000,"locality":"Vishwapriya Nagar","society":"Skylark Jlb Residency","furnishing":"SF","tenant":"MALE","bathroom":0,"url":"http://nobr.kr/sy/hHbLS3"},{"id":"2d08422471","lat":12.997922,"lng":77.601596,"bhk":"3BHK","rent":12000,"deposit":24000,"size":800,"locality":"Benson Town","society":"Shanthi Kiran Apartment","furnishing":"FF","tenant":"FEMALE","bathroom":0,"url":"http://nobr.kr/sy/P3L7z3"},{"id":"482bdf0869","lat":12.995422,"lng":77.578104,"bhk":"1BHK","rent":5000,"deposit":18000,"size":400,"locality":"Sheshadripuram","society":"Standalone building ","furnishing":"FF","tenant":"FEMALE","bathroom":0,"url":"http://nobr.kr/sy/1QdSL3"},{"id":"838d8934ae","lat":12.874394,"lng":77.644619,"bhk":"3BHK","rent":13000,"deposit":25000,"size":1700,"locality":"Singasandra","society":"Vensa Residency","furnishing":"FF","tenant":"FEMALE","bathroom":0,"url":"http://nobr.kr/sy/1gw3Y2"},{"id":"c629b70e03","lat":12.977897,"lng":77.646221,"bhk":"3BHK","rent":16000,"deposit":72000,"size":1200,"locality":"Indiranagar","society":"Independent House","furnishing":"SF","tenant":"MALE","bathroom":0,"url":"http://nobr.kr/sy/tbwQz2"},{"id":"52d9b9206b","lat":12.955624,"lng":77.653461,"bhk":"2BHK","rent":19000,"deposit":50000,"size":1100,"locality":"Murugeshpalya","society":"Independent House","furnishing":"FF","tenant":"FEMALE","bathroom":0,"url":"http://nobr.kr/sy/9bhkT3"},{"id":"8620a71744","lat":12.898997,"lng":77.66815,"bhk":"3BHK","rent":18000,"deposit":50000,"size":2200,"locality":"Bellandur","society":"Elite Breeze","furnishing":"SF","tenant":"MALE","bathroom":0,"url":"http://nobr.kr/sy/rcCwd"},{"id":"46dd930e57","lat":13.13616,"lng":77.57068,"bhk":"3BHK","rent":13333,"deposit":67000,"size":1500,"locality":"Ramky One North","society":"Yelahanka","furnishing":"FF","tenant":"MALE","bathroom":0,"url":"http://nobr.kr/sy/YHmFC3"},{"id":"59bfa12018","lat":13.058043,"lng":77.642754,"bhk":"1BHK","rent":12000,"deposit":36000,"size":600,"locality":"Kothanur","society":"Independent House","furnishing":"FF","tenant":"FEMALE","bathroom":0,"url":"http://nobr.kr/sy/Nn9Z53"},{"id":"e35bd12c6b","lat":13.040798,"lng":77.518142,"bhk":"2BHK","rent":7000,"deposit":45000,"size":1200,"locality":"T. Dasarahalli","society":"Standalone Building ","furnishing":"SF","tenant":"FEMALE","bathroom":0,"url":"http://nobr.kr/sy/T8sQs3"},{"id":"f514660521","lat":12.925708,"lng":77.677623,"bhk":"3BHK","rent":16500,"deposit":40000,"size":1200,"locality":"Bellandur","society":"Elegance Garnet Apartment","furnishing":"SF","tenant":"MALE","bathroom":0,"url":"http://nobr.kr/sy/GBKNb5"},{"id":"dfc57a177a","lat":12.908673,"lng":77.608856,"bhk":"2BHK","rent":16000,"deposit":25000,"size":1000,"locality":"BTM Layout","society":"Tharun Residency","furnishing":"SF","tenant":"MALE","bathroom":0,"url":"http://nobr.kr/sy/Grf6Q3"},{"id":"196ff90196","lat":12.981201,"lng":77.788072,"bhk":"1BHK","rent":5000,"deposit":5000,"size":600,"locality":"Samethanahalli","society":"standalone building","furnishing":"SF","tenant":"FEMALE","bathroom":0,"url":"http://nobr.kr/sy/HwyKj3"},{"id":"5dae662572","lat":12.926982,"lng":77.669361,"bhk":"2BHK","rent":20000,"deposit":650000,"size":1150,"locality":"Green Glen Layout, Bellandur","society":"Hamilton surabhi","furnishing":"SF","tenant":"FEMALE","bathroom":0,"url":"http://nobr.kr/sy/mp89Q4"},{"id":"deda742c51","lat":12.900642,"lng":77.623421,"bhk":"3BHK","rent":8000,"deposit":30000,"size":1300,"locality":"Bommanahalli","society":"Maruti Prime, Bommanahalli","furnishing":"SF","tenant":"MALE","bathroom":2,"url":"http://nobr.kr/sy/HLKL2"},{"id":"a8652912dc","lat":12.932023,"lng":77.703679,"bhk":"3BHK","rent":21700,"deposit":50000,"size":1590,"locality":"Bhoganhalli","society":"Innovative Oak Garden Phase-2","furnishing":"FF","tenant":"MALE","bathroom":0,"url":"http://nobr.kr/sy/8m52Y3"},{"id":"089e4e472e","lat":12.963581,"lng":77.646049,"bhk":"3BHK","rent":14000,"deposit":70000,"size":2000,"locality":"Hal 2Nd Stage","society":"Saptagiri Mansion for&#40;females only&#41;","furnishing":"FF","tenant":"MALE","bathroom":3,"url":"http://nobr.kr/sy/Mcr5S4"},{"id":"a3d5cf0898","lat":12.972015,"lng":77.694706,"bhk":"3BHK","rent":15000,"deposit":35000,"size":1500,"locality":"Doddanekundi","society":"Amrutha Residency","furnishing":"SF","tenant":"MALE","bathroom":0,"url":"http://nobr.kr/sy/5GMmR3"},{"id":"7e250d1c8c","lat":13.238789,"lng":77.706599,"bhk":"2BHK","rent":13500,"deposit":40000,"size":650,"locality":"Devanahalli","society":"Krishnaja Northcity","furnishing":"FF","tenant":"MALE","bathroom":0,"url":"http://nobr.kr/sy/ZXP2r2"},{"id":"5761441dfe","lat":12.895152,"lng":77.66016,"bhk":"4BHK","rent":22500,"deposit":65000,"size":2104,"locality":"Sarjapur Road, Bangalore","society":"Purva Skywood","furnishing":"FF","tenant":"MALE","bathroom":0,"url":"http://nobr.kr/sy/VyCZj2"},{"id":"099d0603c9","lat":12.983295,"lng":77.754017,"bhk":"2BHK","rent":22000,"deposit":50000,"size":1350,"locality":"**********","society":"Srinivasa Sunridge","furnishing":"FF","tenant":"FEMALE","bathroom":0,"url":"http://nobr.kr/sy/wH8Zj3"},{"id":"7ccfad181a","lat":12.962183,"lng":77.644435,"bhk":"1RK","rent":15000,"deposit":50000,"size":150,"locality":"Kodihalli hal 2nd stage","society":"Independent House","furnishing":"SF","tenant":"MALE","bathroom":0,"url":"http://nobr.kr/sy/H6vtj2"},{"id":"f6df141e93","lat":13.066647,"lng":77.637946,"bhk":"4+BHK","rent":10000,"deposit":50000,"size":2500,"locality":"RK Hegde Nagar","society":"standalone building","furnishing":"SF","tenant":"FEMALE","bathroom":0,"url":"http://nobr.kr/sy/vXRSX"},{"id":"71a37a03f3","lat":12.900801,"lng":77.641052,"bhk":"2BHK","rent":15850,"deposit":50000,"size":1000,"locality":"HSR Layout","society":"Apartment ","furnishing":"SF","tenant":"MALE","bathroom":0,"url":"http://nobr.kr/sy/XvwTp2"},{"id":"c49dbc0418","lat":12.88492,"lng":77.604895,"bhk":"1BHK","rent":25000,"deposit":150000,"size":690,"locality":"MICO Layout 2nd stage","society":"Keya Spring, MICO Layout 2nd stage","furnishing":"FF","tenant":"MALE","bathroom":0,"url":"http://nobr.kr/sy/5jDc42"},{"id":"c49dbc0418","lat":12.88492,"lng":77.604895,"bhk":"1BHK","rent":25000,"deposit":150000,"size":690,"locality":"MICO Layout 2nd stage","society":"Keya Spring, MICO Layout 2nd stage","furnishing":"FF","tenant":"MALE","bathroom":0,"url":"http://nobr.kr/sy/5jDc42"},{"id":"5b5fd10d58","lat":13.144332,"lng":77.68451,"bhk":"3BHK","rent":12000,"deposit":40000,"size":1043,"locality":"Huvinayakanahalli","society":"Brigade El Dorado","furnishing":"FF","tenant":"MALE","bathroom":3,"url":"http://nobr.kr/sy/RCgz54"},{"id":"6bf8060e41","lat":12.96602,"lng":77.718108,"bhk":"1BHK","rent":8500,"deposit":8500,"size":500,"locality":"Brookefield","society":"Bharat nillaya","furnishing":"SF","tenant":"FEMALE","bathroom":0,"url":"http://nobr.kr/sy/Y7sKj"},{"id":"2262f006ca","lat":12.824075,"lng":77.655947,"bhk":"2BHK","rent":14000,"deposit":40000,"size":800,"locality":"Electronic City","society":"Independent House","furnishing":"SF","tenant":"FEMALE","bathroom":0,"url":"http://nobr.kr/sy/zy15N3"},{"id":"7cb4070a46","lat":12.97698,"lng":77.678126,"bhk":"2BHK","rent":21000,"deposit":100000,"size":1300,"locality":"C V Raman Nagar","society":"Sonesta cosmos","furnishing":"FF","tenant":"MALE","bathroom":0,"url":"http://nobr.kr/sy/x11Nc3"},{"id":"4694582ccf","lat":12.883157,"lng":77.575665,"bhk":"2BHK","rent":12000,"deposit":17000,"size":1200,"locality":"JP Nagar","society":"FEMALE SHARING","furnishing":"SF","tenant":"FEMALE","bathroom":0,"url":"http://nobr.kr/sy/5jSCT3"},{"id":"43e09d02d1","lat":12.821163,"lng":77.657799,"bhk":"3BHK","rent":13500,"deposit":27000,"size":1200,"locality":"Maragondanahalli","society":"Smondoville","furnishing":"FF","tenant":"FEMALE","bathroom":0,"url":"http://nobr.kr/sy/YqB2L3"},{"id":"43e09d02d1","lat":12.821163,"lng":77.657799,"bhk":"3BHK","rent":13500,"deposit":27000,"size":1200,"locality":"Maragondanahalli","society":"Smondoville","furnishing":"FF","tenant":"FEMALE","bathroom":0,"url":"http://nobr.kr/sy/YqB2L3"},{"id":"054dc9071a","lat":12.941507,"lng":77.623583,"bhk":"2BHK","rent":25650,"deposit":125000,"size":1200,"locality":"Koramangala","society":"APARTMENT","furnishing":"FF","tenant":"FEMALE","bathroom":0,"url":"http://nobr.kr/sy/ryrmF3"},{"id":"d2cbc80dd0","lat":12.911228,"lng":77.679654,"bhk":"2BHK","rent":13000,"deposit":33000,"size":700,"locality":" D&#39; Souza Layout,","society":"Smart Homes, HNR Layout","furnishing":"SF","tenant":"FEMALE","bathroom":0,"url":"http://nobr.kr/sy/GHWfR3"},{"id":"26e5042b31","lat":12.906113,"lng":77.698766,"bhk":"2BHK","rent":24000,"deposit":100000,"size":1650,"locality":"Doddakannelli","society":"SJR Palazza City","furnishing":"FF","tenant":"MALE","bathroom":0,"url":"http://nobr.kr/sy/h9tMt"},{"id":"31930813d6","lat":12.898794,"lng":77.604967,"bhk":"3BHK","rent":20000,"deposit":50000,"size":2062,"locality":"J. P. Nagar","society":"Chartered Samskruti","furnishing":"FF","tenant":"MALE","bathroom":3,"url":"http://nobr.kr/sy/2Br7J2"},{"id":"a3ff6f0191","lat":13.085279,"lng":77.644533,"bhk":"3BHK","rent":18000,"deposit":50000,"size":1952,"locality":"Thanisandra","society":"Bhartiya City Nikoo Homes","furnishing":"FF","tenant":"FEMALE","bathroom":0,"url":"http://nobr.kr/sy/hLn2B3"},{"id":"2bf0b516fd","lat":12.904434,"lng":77.622593,"bhk":"1RK","rent":15000,"deposit":20000,"size":400,"locality":"Bommanahalli","society":"Independent House","furnishing":"SF","tenant":"MALE","bathroom":1,"url":"http://nobr.kr/sy/s4HXS4"},{"id":"df55270732","lat":12.99156,"lng":77.702752,"bhk":"3BHK","rent":18500,"deposit":115000,"size":1610,"locality":"XPR3+J4V, Brigade Metropolis, Garudachar Palya, Mahadevapura, Bengaluru, Karnataka 560048, India","society":"Brigade Metropolis","furnishing":"FF","tenant":"MALE","bathroom":0,"url":"http://nobr.kr/sy/LsYCP4"},{"id":"9f0131103d","lat":13.055242,"lng":77.599624,"bhk":"2BHK","rent":12000,"deposit":35000,"size":850,"locality":"Dasarahalli","society":"standalone building","furnishing":"FF","tenant":"FEMALE","bathroom":0,"url":"http://nobr.kr/sy/LGNBG3"},{"id":"0ce1c2314a","lat":12.938512,"lng":77.626969,"bhk":"3BHK","rent":17000,"deposit":66999,"size":1800,"locality":"Koramangala","society":"Team&#39;S Royal","furnishing":"FF","tenant":"MALE","bathroom":3,"url":"http://nobr.kr/sy/XK52b5"},{"id":"f44a862735","lat":13.06,"lng":77.62,"bhk":"3BHK","rent":14000,"deposit":40000,"size":1200,"locality":"Thanisandra","society":"Nikoo Homes II West","furnishing":"SF","tenant":"FEMALE","bathroom":0,"url":"http://nobr.kr/sy/ZnW4d"},{"id":"3b999a0cd8","lat":13.036973,"lng":77.53257,"bhk":"1BHK","rent":5200,"deposit":26000,"size":750,"locality":" Yeshwanthpur","society":"Platinum City","furnishing":"SF","tenant":"FEMALE","bathroom":2,"url":"http://nobr.kr/sy/3hd755"},{"id":"8cf58855fe","lat":12.979528,"lng":77.761643,"bhk":"2BHK","rent":11000,"deposit":30000,"size":1074,"locality":"Whitefield","society":"Green Earth Atrium","furnishing":"FF","tenant":"MALE","bathroom":2,"url":"http://nobr.kr/sy/hVBN55"},{"id":"c9b00d1149","lat":12.900705,"lng":77.64642,"bhk":"3BHK","rent":16000,"deposit":45000,"size":1300,"locality":"Muneshwara Nagar","society":"Purvi Lotus","furnishing":"SF","tenant":"MALE","bathroom":3,"url":"http://nobr.kr/sy/w54K65"},{"id":"9dc2841f53","lat":12.970508,"lng":77.714887,"bhk":"3BHK","rent":30000,"deposit":150000,"size":1734,"locality":"Brookefield","society":"Sterling Shalom","furnishing":"SF","tenant":"MALE","bathroom":0,"url":"http://nobr.kr/sy/kG6fd5"},{"id":"75390c04bc","lat":12.984526,"lng":77.763704,"bhk":"3BHK","rent":12000,"deposit":24000,"size":1300,"locality":"123/1, Manjushree Layout, 3G Homes Crimson Layout, Channasandra, Bengaluru, Karnataka 560067, India","society":"Ark Serene County","furnishing":"FF","tenant":"FEMALE","bathroom":2,"url":"http://nobr.kr/sy/7qSQ82"},{"id":"f4a82c16ea","lat":12.840883,"lng":77.66787,"bhk":"2BHK","rent":15000,"deposit":40000,"size":1200,"locality":"Electronic City","society":"Elite Greenwoods","furnishing":"SF","bathroom":0,"url":"http://nobr.kr/sy/94fcm3"},{"id":"8398bc53a7","lat":13.021083,"lng":77.761684,"bhk":"4BHK","rent":18000,"deposit":60000,"size":2426,"locality":"Kannamangala","society":"AWHO  Sandeep Vihar","furnishing":"FF","tenant":"MALE","bathroom":4,"url":"http://nobr.kr/sy/prYvC4"},{"id":"8398bc53a7","lat":13.021083,"lng":77.761684,"bhk":"4BHK","rent":18000,"deposit":60000,"size":2426,"locality":"Kannamangala","society":"AWHO  Sandeep Vihar","furnishing":"FF","tenant":"MALE","bathroom":4,"url":"http://nobr.kr/sy/prYvC4"},{"id":"d6cf780574","lat":13.044099,"lng":77.508737,"bhk":"2BHK","rent":18000,"deposit":36000,"size":893,"locality":"Dasarahalli","society":"Sattva Opus","furnishing":"SF","tenant":"FEMALE","bathroom":0,"url":"http://nobr.kr/sy/N6B15"},{"id":"d6cf780574","lat":13.044099,"lng":77.508737,"bhk":"2BHK","rent":18000,"deposit":36000,"size":893,"locality":"Dasarahalli","society":"Sattva Opus","furnishing":"SF","tenant":"FEMALE","bathroom":0,"url":"http://nobr.kr/sy/N6B15"},{"id":"10c0d608ce","lat":12.954923,"lng":77.66142,"bhk":"3BHK","rent":13000,"deposit":39000,"size":1748,"locality":"Murugeshpalya","society":"Airview Apartments","furnishing":"FF","tenant":"MALE","bathroom":3,"url":"http://nobr.kr/sy/tjvMk"},{"id":"af43020d9f","lat":12.960816,"lng":77.69933,"bhk":"3BHK","rent":16000,"deposit":50000,"size":1400,"locality":"Vanshee Citadel Apartment","society":"Vanshee Citadel","furnishing":"FF","tenant":"FEMALE","bathroom":2,"url":"http://nobr.kr/sy/H7L445"},{"id":"c25f9325d4","lat":12.990939,"lng":77.670952,"bhk":"3BHK","rent":10000,"deposit":16700,"size":1596,"locality":"Mahadevapura","society":"D0, Samhitha Creek & Annex","furnishing":"SF","tenant":"FEMALE","bathroom":2,"url":"http://nobr.kr/sy/TPHBW"},{"id":"8b065d2224","lat":12.953355,"lng":77.619605,"bhk":"3BHK","rent":45000,"deposit":1000000,"size":1420,"locality":"Viveka Nagar","society":"Mannat Apartment, Viveka Nagar","furnishing":"FF","tenant":"FEMALE","bathroom":0,"url":"http://nobr.kr/sy/hY4g55"},{"id":"546dbc0794","lat":12.946732,"lng":77.628718,"bhk":"1RK","rent":9000,"deposit":15000,"size":500,"locality":"Ejipura","society":"Independent House","furnishing":"FF","tenant":"FEMALE","bathroom":0,"url":"http://nobr.kr/sy/1C7JN4"},{"id":"7a677c30d7","lat":12.978369,"lng":77.640836,"bhk":"2BHK","rent":18000,"deposit":54000,"size":750,"locality":"Indiranagar","society":"Independent House","furnishing":"FF","tenant":"MALE","bathroom":2,"url":"http://nobr.kr/sy/x2DWB4"},{"id":"cd3a8307b8","lat":12.890694,"lng":77.627468,"bhk":"2BHK","rent":10000,"deposit":25000,"size":1654,"locality":"Hongasandra","society":"Bhoomika Parijatha Lifestyle Apartments","furnishing":"SF","tenant":"FEMALE","bathroom":2,"url":"http://nobr.kr/sy/r72nf"},{"id":"cd3a8307b8","lat":12.890694,"lng":77.627468,"bhk":"2BHK","rent":10000,"deposit":25000,"size":1654,"locality":"Hongasandra","society":"Bhoomika Parijatha Lifestyle Apartments","furnishing":"SF","tenant":"FEMALE","bathroom":2,"url":"http://nobr.kr/sy/r72nf"},{"id":"36de4d0d93","lat":12.979781,"lng":77.693941,"bhk":"3BHK","rent":9000,"deposit":40000,"size":1200,"locality":"Mahadevapura","society":"Anjani PG","furnishing":"FF","tenant":"FEMALE","bathroom":3,"url":"http://nobr.kr/sy/bTYj44"},{"id":"e8425000cd","lat":12.993144,"lng":77.58825,"bhk":"1RK","rent":9000,"deposit":18000,"size":200,"locality":"Vasanth Nagar","society":"Independent House","furnishing":"FF","tenant":"FEMALE","bathroom":1,"url":"http://nobr.kr/sy/HQFkG"},{"id":"6d38633320","lat":12.819814,"lng":77.664708,"bhk":"2BHK","rent":6750,"deposit":13500,"size":900,"locality":"Electronic City","society":"GM Infinite","furnishing":"SF","tenant":"MALE","bathroom":2,"url":"http://nobr.kr/sy/fbzvf5"},{"id":"067c794c25","lat":12.928009,"lng":77.629829,"bhk":"3BHK","rent":13333,"deposit":83333,"size":1400,"locality":"Koramangala","society":"Prestige Oakwood","furnishing":"SF","tenant":"MALE","bathroom":2,"url":"http://nobr.kr/sy/SyQjZ4"},{"id":"3105c83317","lat":12.967423,"lng":77.535768,"bhk":"1BHK","rent":8000,"deposit":80000,"size":600,"locality":"Vijaya Nagar","society":"Standalone Building","furnishing":"SF","tenant":"MALE","bathroom":1,"url":"http://nobr.kr/sy/6d4Z75"},{"id":"75a89c5eaf","lat":13.007441,"lng":77.752356,"bhk":"3BHK","rent":12000,"deposit":45000,"size":1500,"locality":"Kadugodi","society":"Amrutha Sarovar","furnishing":"FF","tenant":"FEMALE","bathroom":2,"url":"http://nobr.kr/sy/J8Ms45"},{"id":"fd18b13d92","lat":13.045173,"lng":77.626707,"bhk":"1BHK","rent":5000,"deposit":25000,"size":500,"locality":"Nagavara","society":"Independent House","furnishing":"FF","tenant":"MALE","bathroom":1,"url":"http://nobr.kr/sy/4Ns375"},{"id":"c84cc834dd","lat":12.868782,"lng":77.563391,"bhk":"2BHK","rent":8500,"deposit":30000,"size":900,"locality":"JP Nagar","society":"Adithya Residency, JP Nagar","furnishing":"FF","tenant":"FEMALE","bathroom":2,"url":"http://nobr.kr/sy/wdKwt3"},{"id":"aa428803dd","lat":12.840202,"lng":77.648243,"bhk":"3BHK","rent":30000,"deposit":90000,"size":1159,"locality":"Electronic City","society":"Ittina Mahavir","furnishing":"SF","tenant":"FEMALE","bathroom":2,"url":"http://nobr.kr/sy/QDC435"},{"id":"b1ec7c223d","lat":12.904491,"lng":77.701526,"bhk":"3BHK","rent":25000,"deposit":100000,"size":1300,"locality":"Doddakannelli","society":"standalone building","furnishing":"FF","tenant":"FEMALE","bathroom":3,"url":"http://nobr.kr/sy/HDxky4"},{"id":"93bf173619","lat":13.092304,"lng":77.632502,"bhk":"3BHK","rent":55000,"deposit":300000,"size":1400,"locality":"Agrahara Badavane,  Thanisandra  ","society":"Commanders Galaxy Apartments","furnishing":"FF","tenant":"FEMALE","bathroom":3,"url":"http://nobr.kr/sy/fD3p63"},{"id":"87ad3e1142","lat":12.966607,"lng":77.513754,"bhk":"3BHK","rent":9000,"deposit":27000,"size":1400,"locality":"1st D Main Road, Naagarabhaavi","society":"Maskara Kunj ","furnishing":"FF","tenant":"MALE","bathroom":2,"url":"http://nobr.kr/sy/xjrdg4"},{"id":"c542991495","lat":12.888197,"lng":77.596983,"bhk":"2BHK","rent":12000,"deposit":15000,"size":900,"locality":"Arekere","society":"Mantri Woodlands","furnishing":"SF","tenant":"MALE","bathroom":2,"url":"http://nobr.kr/sy/9nFF75"},{"id":"43496210e6","lat":13.008433,"lng":77.641986,"bhk":"4+BHK","rent":6000,"deposit":18000,"size":2000,"locality":"Banaswadi","society":"Independent House","furnishing":"FF","tenant":"MALE","bathroom":3,"url":"http://nobr.kr/sy/Vjk2b5"},